[{"Name":"好時節休閒農場","Tel":"03-3889689","Toldescribe":"好時節農莊位於桃園大溪鎮，除了有好山好水外，更有豐富的自然生態。好時節農莊是由ㄧ群熱愛大自然的夥伴們，歷經近一年的時間，所打造出的夢幻綠色基地，以感動幸福為園區宗旨，希望可以讓來園的遊客有體會純淨樸質的幸福感覺。農莊內自然生態豐富，園區規劃有觀嵐休憩區、幸福麵包窯、青青草原、好時節伊甸園、昆蟲民宿、小麥輪作區等等，希望來園遊客可以沐浴在大自然中，感受大自然的力量；除此之外，園區也規劃有DIY體驗活動，如自然探索體驗、窯烤披薩DIY、創意盆栽DIY等，是個適合親子、朋友、家庭聚會的好所在。當然，到了園區千萬別錯過園區精心準備的悠閒下午茶時間，邊喫茶、邊享用園區推薦窯烤美味，可說是人生一大享受。園區也搭配有親子、小學戶外教學行程，在大自然中可以遠離塵囂、拋開壓力，享受最單純的生命活力，並讓您留下美好的回憶。隨著節氣的流轉與季節的更迭，在好時節農莊的田野、山坡、小溪也上演著春耕、夏耘、秋收、冬藏屬於大自然四季獨特的幸福樂章，我們要以最拿手的自然體驗讓您見證大自然的綠色奇蹟!好時節農莊所在的內柵社區是一處臥虎藏龍的幸福小鎮!這裡有許多身手不凡的老大人，藉由傳統工藝活動體驗與您一起分享鄉下才有的幸福滋味，同時也要將許多即將失傳的農村智慧傳承下去。好時節農莊位於人文薈萃的桃園大溪，大溪除了有知名的人氣旅遊景點外，更有許多當地人才熟門熟路的私房景點，這一季我們也推出了結合周邊私房景點的深度旅遊行程，讓您避開擁擠人潮享受悠閒旅遊的好心情！","TrafficGuidelines":"1.大眾運輸工具:搭乘桃園客運至大溪站後,轉搭往桃園坪林方向之公車,於內柵廟下車,步行至農場約5~10分鐘(可來電洽詢)2.開車國道三號大溪出口下交流道，往大溪兩蔣園區指標方向前進，接台4線，經崁津大橋往石門方向前行約5公里處，台四線32.9公里。","Add":"桃園市大溪區康莊路三段225號","OpenHours":"平日09:00-:17:00；假日09:00-:18:00；星期一休園","City":"桃園縣","Town":"大溪鎮","Coordinate":"24.8786204,121.4624","Py":24.8549664,"Px":121.28272709999999,"Picture1":""},{"Name":"東眼山森林遊樂區","Tel":"遊樂區03-3821506；大溪工作站03-3882038；傳真03-38735","Toldescribe":"東眼山自然教育中心位於桃園縣復興鄉霞雲村，隸屬於林務局新竹林區管理處，占地916公傾，海拔高度650~1,212公尺之間，山形由遠處眺望恰似倒臥的人的側臉，清晨的日出由側臉眼窩的位置升起，因而得名。沿著東眼山林間步道緩慢地往上行走，一棵棵高聳入天的柳杉，彷彿是在比賽誰能夠先摸到藍色的天空，一棵還比一棵高。這些人造林，以柳杉、杉木為主，綿延達數百公頃，是東眼山森林遊樂區的特色之一，也說明了台灣早期的造林政策，從林間步道入口一直到山脊線，都感受到這片人造林的魅力。夏季時，棲息在樹幹上的蟪蛄一同放聲合鳴，不需指揮，不需樂譜，就可以演奏出大自然美妙的樂章。當您在林間行走時，可留意您的腳步，您會不經意發現步道上有許多錯綜複雜、交互纏繞的樹根，這些是步道旁樹木的根，您可以停下您的腳步，仔細地欣賞樹根生長的方式，以及樹根曲線之美。經過了一大片的人造林後，來到了山脊線，沿著山脊線上的步道行走，步道兩旁的闊葉林，凸顯了東眼山森林遊樂區原始森林的特色，主要是以殼斗科與樟科的植物為主。東眼山森林遊樂區的天然闊葉林因為受東北季風的影響，因此涼溫帶森林下降至山脊線，又因為東北季風風壓的影響，造成林中的樹木較密，且樹幹大多不粗大的現象。在這一片闊葉林中，粉紅色的西施花總會在春天時不吝嗇地展現花顏，吸引遊客的目光。西施花是屬於喬木狀的杜鵑花，又稱為西施杜鵑，喜歡生長在暖溫帶的環境。由於東眼山森林遊樂區經常有雲霧繚繞，因此環境較潮濕，成為蕨類與苔鮮類生長的天堂，無論是步道旁、樹幹上與石壁上，到處充滿了綠意盎然的景象。步道旁古老的蕨類―瘤足蕨，是台灣雲霧帶森林重要的指標植物之一，看到它時，往往也就可以欣賞到雲霧或檜木。東眼山林道沿線有許多的地層露頭，包括乾溝層、大桶山層、木山層與南港層，岩層內含有許多貝類、有孔蟲、海膽等生物的生痕化石。藉由這些生痕化石，科學家們可以用以觀察、推測3,000多萬年前這些生物的覓食、休息等行為模式及環境狀態，是極具科學研究與自然教育價值的瑰寶。另外，包括河流侵蝕、搬運、波痕、洋蔥狀風化、結核等地質景觀，也常能在這些地層露頭中觀察得到，在漫步東眼山林到之餘，也能享受一趟精彩豐富的地質之旅。走到東眼山森林遊樂區的最高點，可在瞭望台上遠眺桃園、三峽、淡水河與七星山系，山巒、溪流與城市，盡收眼底。在瞭望台上，時而會有雲霧飄來，您可以體驗「坐看雲起時」的美景，享受漫步在雲端的浪漫景緻，您一定會喜歡上東眼山。【如欲安排前往建議事先電話聯繫確認】","TrafficGuidelines":"目前並無客運車行駛直達本區，建議以自行開車前往為宜。1. 桃園→大溪→省道台7線→復興→縣道119線→東眼山森林遊樂區。2. 三峽→大埔→省道台7乙線→三民→省道台7線復興→縣道119線→東眼山森林遊樂區。","Add":"桃園縣復興鄉佳志30號","OpenHours":"非假日08:00~17:00 假日07:00~17:00","City":"桃園縣","Town":"復興鄉","Coordinate":"22.9027408,121.08220879999999","Py":34.663591,"Px":136.47744799999998,"Picture1":""},{"Name":"永安漁港","Tel":"03-486-1017、03-486-1537中壢區漁會","Toldescribe":"每到落日時分，永安漁港海面上的夕陽染紅了海天一線的天空及大海，漁船在餘暉映照下緩緩而行，海風吹起，有種出奇的美與寧靜；入夜時橫跨漁港的觀海橋點起絢麗迷人的燈光，優美的拱形橋投射出的彩光映照在平靜的水面上，五光十色，呈現出浪漫的風情；而新建的觀光漁市大樓還有著新鮮、美味又便宜的小吃，吸引著大量的人潮。動人的美景及誘人的美食令遊客們留連忘返！永安漁港又名崁頭厝港，原本為一小漁港，經多年來不斷的加長堤防、新闢碼頭、挖深航道，始有今日之規模。而其漁獲以鯧、鰆、烏魚、小卷、鰹、黃花魚及鯊為主。漁港之天然生態景觀優美，有平緩、廣闊的海灘供人戲水、垂釣，長達300公尺的防坡堤沿邊設有觀海涼亭及步道供人欣賞大海及落日。近年來為發展觀光休閒漁業，更積極的興建各項設施。2002年完成了總長120公尺的觀海橋，為一銅構材質的跨港人行拱橋，自橋頂的觀景平台，可觀賞漁船自港口出入的情景。夜晚，橋上的彩燈亮起，極為燦爛奪目。2004年，寬敞的觀光漁市大樓完工，取代了原先的臨時直銷中心。內部又分為生鮮、乾貨及熟食區，提供遊客採購海鮮及品嚐美食的舒適空間。【如欲安排前往建議事先電話聯繫確認】","TrafficGuidelines":"開車國道一號新屋交流道下，循114號縣道往新屋方向直行，依指標往永安方向可抵。 大眾運輸桃園火車站或中壢火車站前搭乘往永安之桃園客運，於永安站下車可抵。","Add":"桃園縣新屋鄉永安村的社子溪北岸","OpenHours":"港口全天開放；漁貨買賣約09:00~21:00","City":"桃園縣","Town":"新屋鄉","Coordinate":"23.3165746,121.45421050000004","Py":24.9826597,"Px":121.06790699999999,"Picture1":""},{"Name":"我的香草花園休閒農場","Tel":"03-4864705、0926-316367","Toldescribe":"我的香草花園是由一位愛花的女子所打造的美麗花園。花園座落在一片廣大的田野中。偏愛天藍色調的園主將鐵皮屋搭成的餐廳及圍牆全漆成了天藍色，極為醒目。花園內種植有60餘種的香草植物，布置得小巧而精緻。遊客來此除了可吃到美味的香草餐，園主更以其多年的經驗，教人如何將香草植物應用於生活，讓人知道香草的妙用。園主畢業於復興商工美工科，從事花卉園藝工作有多年的歷史，由於非常迷戀香草植物，於是著手在新屋鄉籌設農場，幾年後終於買下了1000多坪的土地，她從花園的造景到軟、硬體之設計皆親自參與，夢想中的花園於焉誕生。由於新屋鄉為靠海的鄉鎮，並不利於香草植物的生長，創設其間更歷經了多次的風災，然而靠著自己的毅力及夢想，並到處求教於專家，終於克服了一切的困難。目前花園裡已利用溫室培育出60餘種的香草植物，其中有16種香草盆栽提供販售。園主更不斷的研發，使能將香草植物應用於日常生活各層面的可能性。有感於許多的顧客購買了香草植物後卻不知如何照顧，也不知如何料理，因此園主也開始開班授課。遊客可在此學習到任何香草相關的知識，進而打造一座屬於自己的香草花園。","TrafficGuidelines":"開車國道一號新屋交流道下，接114縣道往永安漁港方向直行，過東明國小後第一個路口右轉後接桃93線再前行3公里即抵。","Add":"桃園縣新屋鄉下田村9鄰4之6號","OpenHours":"一律只接受預約 10人以上要10日提前預約 10人以下3天前","City":"桃園縣","Town":"新屋鄉","Coordinate":"24.9873045,121.05930869999997","Py":24.9961601,"Px":121.06258200000002,"Picture1":""},{"Name":"桃園楊梅茶改場","Tel":"886-3-4822059","Toldescribe":"茶香四溢的茶業改良場位於桃園縣楊梅鎮埔心，佔地廿公頃，綠油油的茶樹星羅棋布，是臺灣茶葉主要栽培中心，掌理臺灣茶葉的試驗研究、示範觀摩、推廣教育，以及農民資訊服務、茶農推廣教育訓練等工作。研究設備與農場設施規劃完善，是臺灣唯一的茶葉試驗研究專業機構，更在世界各產茶區及茶葉重要消費國家享有盛名。楊梅為山坡地形，在地勢較低的地方是水田區，較高凸的地方，則多為旱田茶園，因土壤偏酸不利耕種，於是茶葉便成了楊梅鎮坡地農產物的大宗，茶葉文化更是楊梅固有的地方特色。設置在茶業改良場內的水土保持戶外教室，位於矮仔坪茶園，全園依照坡度與高度分成三個不同的區域，海拔最低是緩坡區，其次為陡坡地，最高為平台區。來到這裡除了可感受到改良茶葉的用心之外，還可吸收到各種水土保持知識，在自然感性的環境中薰陶出知性的氣息。","TrafficGuidelines":"","Add":"326 桃園縣楊梅市埔心中興路324號","OpenHours":"","City":"桃園縣","Town":"楊梅市","Coordinate":"","Py":24.9150519,"Px":121.18633490000002,"Picture1":""},{"Name":"龍潭三水","Tel":"(02) 22125285 #1305","Toldescribe":"龍潭，地理條件得天獨厚，孕育著大自然最原始的風貌：境內起伏的山陵、遼闊的池塘、翠綠綿延的茶山，以及遼闊的視野與清新的空氣等，在在都讓這塊寶地鮮活起來，也讓龍潭成了桃園縣觀光的精華區。風景綺麗的龍潭三水水土保持戶外教室位於桃園縣龍園休閒農場內，成立於民國八十六年，園區內不但水土保持設施完善，還有二座超大型農塘，藉以疏導地滑治理區的地下水，除可安定排洪，更是民眾垂釣的好地方。此外，水土保持區在本區精心打造的富麗農村，除了讓區內生產運輸更為便利之外，景觀優美的青翠茶園和寧靜的環境，更改善了茶農生產和居住的品質，吸引都市人口來到這裡休閒活動，體現生活、生產、生態合一的境界來到這裡，可體驗淳樸的農村生活環境、可走步道健身，或是在公園悠閒徜徉，是民眾郊遊烤肉、野餐、踏青、健行、垂釣或露營的絕佳選擇，還可結合鄰近的旅遊景點，安排一兩天的活動行程。","TrafficGuidelines":"","Add":"桃園縣龍潭鄉三水村大北坑","OpenHours":"週一至週五am9:00-pm5:00 假日 週六日am8:00-pm5:30","City":"桃園縣","Town":"龍潭鄉","Coordinate":"","Py":24.8444927,"Px":121.20539630000007,"Picture1":""},{"Name":"蓮荷園休閒農場","Tel":"03-4776972","Toldescribe":"蓮荷園的布袋蓮池三個戴著帽子的年青男女，擺著不同的姿勢，聞風不動的站立著，不仔細看看還不知是個假人；若近身細看，不只看清了假人，還會被園內的繁花盛景及巧妙多變的蓮園景觀所吸引。若再待久一些，更會被園主夫婦的好客及熱情所吸引。因此每逢荷花盛開的時節，許多遊客總是年年都來，令園主年年都可見到遠來的舊友！蓮荷園的園區面積雖只有2公頃之大，園內蓮花之品種卻多，栽植有大賀蓮、娃娃蓮、建蓮、九品香水蓮、萍蓬草、牡丹蓮、大灑錦等。片片的蓮田間有錦屏藤步道、瓜棚步道及木板橋貫穿數個小蓮田，使遊客能近距離欣賞各處盛開的蓮花。蓮田旁亦種有翠蘆莉、天堂鳥、野薑花及各式香草植物及藥草植物，點綴得園內亮麗繽紛。蓮池旁還設有風車，風車利用風力發電抽取泉水透過竹管流在石臼上。據說此水流經風車上的金錢幣及經過觀音蓮花淨化後，可保捧接泉水的遊客「風生水起好運到」。園區後方，還有個環繞在牡丹蓮花叢中的圓形小島，中間設有古井，在此淨手後可走後方的「五形八卦迷宮」，迷宮是由金露華所圍成，中間亦有一口井，井蓋上繪有八卦，依其指示走出迷宮，據說可以轉運呢；還有古農具碾米活動等，非常闔家蒞臨參觀體驗。【如欲安排前往建議事先電話聯繫確認】","TrafficGuidelines":"開車：國道一號接東西向66號快速道路直行到8.7公里處走慢車道於7.2公里處右轉桃84線新華路往新坡行1.2公里金華路在左轉桃99線金華路再行2公里即抵達。","Add":"桃園縣觀音鄉藍埔村金華路690號","OpenHours":"5月~9月(蓮花旺季)8：00~19：00 10月~4月(非旺季)假日：08:00~17:00 平日需要預約","City":"桃園縣","Town":"觀音鄉","Coordinate":"24.8786204,121.4624","Py":34.663591,"Px":136.47744799999998,"Picture1":""},{"Name":"林家古厝休閒農場","Tel":"03-4980753","Toldescribe":"林家古厝是棟紅磚堆砌的三合院建築，它沉穩的矗立在雖風搖影的竹叢前。離古厝不遠處是一大片又一大片的蓮田，新生的蓮花正沉默的綻放著。古厝有百年的歷史，不只訴說著世代務農的林家生活史，更訴說著台灣先民與這塊土地共同成長的歷史；而新生的蓮花卻為這裏帶來了清新、芬芳的氣息。這裏的蓮田近4甲之大，主要種植大賀蓮、白玉湘蓮及牡丹蓮；農場中有大堀溪貫穿，瓜棚走道亦沿著蓮池及溪旁環繞。我們隨著賞蓮區的指標進入販賣部前的竹棚長亭，一陣古箏的輕柔之樂傳來，一群人正隨著樂聲，專注的用竹草編織飾物，空氣中流露著優閒的古早風情。步道內側有香水蓮花池，黃色的小菜鴉在蓮池內鑽進鑽出，相當活躍；步道外側可見盛開的白玉湘蓮，其花白如玉，花瓣的弧線圓得真是均勻、柔和，柔美得似乎四周的空氣都要為之凝結。瓜棚走道上種有葡萄、百香果及小南瓜等；另一段沿溪的瓜棚主要種植絲瓜，天氣越炎熱，棚上的絲瓜及籐蔓越盛越密。蓮田旁設有古早時期的水車，水車輪上繫有竹桶，將下方溪流的水舀上來灌溉蓮田。蓮田上設有木板步道、木板橋及涼亭，建物四周覆滿了隨風舞動的蓮葉。行走於其間賞荷花、嗅荷香，花雖不能醉人，人卻為之自醉。農場內有可容納200人的焢土窯區、烤肉區及廣大的草皮，還有設水池的兒童遊戲區。古厝內亦設有古農具展覽室，並掛有12幅農家操作農具的漫畫，漫畫內所使用的器具在展覽室內都找得到。小朋友來此按圖搜尋，對照畫上的人物如何使用這項農具，其樂無窮；更可藉此了解到農家早期的生活，了解粒粒米皆辛苦，它來自農夫默默的耕耘及這塊土地默默的恩賜。","TrafficGuidelines":"開車國道一號於大溪交流道出口，銜接台66號快速道路，往觀音方向續行，於7.2公里處,右轉進入桃84線新華路續行，直達桃97線大湖路右轉續行約500公尺，即可。","Add":"桃園縣觀音鄉大堀路175號","OpenHours":"6~9月(花季)假日08:00~20:00，平日8:30~18:00； 10~5月(非花季)日09:00~17:00星期一、二只接受團體預約","City":"桃園縣","Town":"觀音鄉","Coordinate":"24.8786204,121.4624","Py":34.663591,"Px":136.47744799999998,"Picture1":""},{"Name":"捷美休閒農場","Tel":"03-4981476","Toldescribe":"捷美休閒農場位居觀音鄉各處蓮園之中心，為遊客遊覽觀音蓮園之中繼站。遠在路旁就可見到農場的涼亭周圍環繞著翠蘆莉花叢，淡藍紫色的花，在暗綠色葉叢襯托下，更顯亮麗迷人。花叢旁則是600坪左右的蓮池，栽植有香水蓮、觀音蓮、娃娃蓮等。蓮池旁的步道擺設有許多待售的花卉盆栽，有各式蓮花、香草植物、百子蓮、石蓮花等，形成了繽紛的花世界。除了花卉外，農場亦是親子同樂的好去處，場內規劃有200坪的草坪，草坪旁搭有錦屏藤纏繞的長亭。 另外，造型可愛的風車，也是農場的熱門產品，除了有販售外，還教人風車DIY，非常受小朋友歡迎。每逢蓮花季時，農場更特地請來了國畫大師前來助陣，除了當場揮毫外，還教遊客們扇彩蓮花及彩繪扇子，每每吸引著眾多的遊客來此共襄盛舉，為觀音鄉的蓮花文化倍增色彩。農場目前僅在夏天蓮花季時開放，平日不開放，因此到訪前最好再打電話確認。【如欲安排前往建議事先電話聯繫確認】","TrafficGuidelines":"開車國道一號接66號東西快速道路往觀音方向，右轉往新坡方向之桃84線可抵。","Add":"桃園縣觀音鄉大堀村198-1號","OpenHours":"僅開放蓮花季期間與週六、週日","City":"桃園縣","Town":"觀音鄉","Coordinate":"24.8786204,121.4624","Py":34.663591,"Px":136.47744799999998,"Picture1":""}]