[{"Name":"舊山線休閒農業區","Tel":"037-881700","Toldescribe":"三義鄉舊山線休閒農業區以舊山線鐵路為中心向外擴散，包括龍騰村與勝興村，主要為丘陵地，休閒農業區面積484.4541公頃，生產山茶油、仙草、酸菜、梅干、老薑、桃、李、柑橘類、花卉等農產品，區域內著名景點北有勝興車站、南有龍騰斷橋，且有各式客家米食、客家料理和特色加工農產品，每逢假日，遊客接踵而至。區內兩棲類動物及蝶類資源豐富，而每年4~6月間亦可看到群螢飛舞。舊山線鐵路三義段，從日據時期由日本人所建造的鐵路，年代已有百年歷史，88年公告苗栗縣政府指定為古蹟鐵路，所在地的勝興村原名為十六份譯，是台灣西部鐵路的最高點。區內的勝興車站和龍騰斷橋，近年更成為各地遊客重溫舊山線的重要據點，每到假日人潮絡繹不絕。勝興車站的建築是日式木造站房，裡面的柱、樑銜接處全不使用釘子接合。龍騰斷橋的磚造建築，其工法細膩令人讚嘆，除懷舊外，也具藝術的價值。三義舊山線休閒農業區內以經營農園藝、DIY體驗、餐飲和民宿為主，提供多元豐富的服務特色，區內業者相當多，有綠葉方舟、發現之旅、向陽田園、喆娟夢田、山中傳奇等景點。該區以舊山線鐵道文化結合優質山茶油、客家人文、豐富多元農特產品為休閒農業區發展主軸，規劃勝興鐵道文化休閒觀光區、舊山線知性休閒農園區、龍騰農業生活體驗區和水載下瀑布生態教育區，朝多方面休閒農業體驗發展。【如欲安排前往建議事先電話聯繫確認】","TrafficGuidelines":"開車：國道一號三義交流道下-右轉接台13號省道至三義-沿苗49線即可抵達。","Add":"苗栗縣三義鄉龍騰村外庄10號","OpenHours":"","City":"苗栗縣","Town":"三義鄉","Coordinate":"22.7846492,120.4981209","Py":24.3892633,"Px":120.76947599999994,"Picture1":""},{"Name":"春田窯休閒農場","Tel":"037-877820","Toldescribe":"來到苗栗縣三義鄉的山坡處，可以找到這家十分幽靜且獨具古味的春田窯休閒農場，而且這座已歷經十多年歲月的古窯，至今仍然堅持以相思木燒窯、製作陶藝品。因為園主陳老師希望這份古代所傳承下來的火苗，能夠繼續運用在現今的藝術創作上，而且更相信由這座窯所燒出來的作品，必定更加美麗。春田窯是一處具有完善教學的手拉坯中心，來到這裡的新手們不用擔心做不出好作品，因為多位專職的老師隨時都在身邊。對於新手來說，在老師將泥土定位完成後，就會交給新手遊客來製作，無論想做成杯子、盤子或是碗，絕對都可如你所願。不過在製作完成之後可不能直接帶走，因為燒窯必須花上三天二夜的時間，而且一個月內只有開窯兩次，因此遊客得多點耐心稍微等待一會，如此才能取得專屬自己的美麗創作品。如果不先玩個手拉坯再離開，那就不算真的來過春田窯，更不會了解窯製品的樂趣與感情了。園區約占地二甲，包括了陶藝教室、窯區、展覽區、露營賞桐等八個區外，還有種植了新鮮的有機蔬菜及自養的放山土雞的有機菜圃。【如欲安排前往建議事先電話聯繫確認】","TrafficGuidelines":"開車從國道1號三義交流道下行，右轉進入台13線往三義方向，經過三義木雕街約1公里處，往大湖方向(光復路口)右轉進入苗130線直行，經過天后宮後左轉往新基隆方向，沿著苗119線直行1公里，到客家書院向右行駛，再1公里即可到達。","Add":"苗栗縣三義鄉雙潭村大坪7號","OpenHours":"平日09:00~17:00 假日09:00~18:00 （每週三公休）","City":"苗栗縣","Town":"三義鄉","Coordinate":"24.3988475,120.79820289999998","Py":24.4094282,"Px":120.79914600000006,"Picture1":""},{"Name":"三義龍騰大閘蟹生態養殖場","Tel":"0933-855-039","Toldescribe":"我的大閘蟹養殖地，是色彩與水質的交響演奏曲。行經鯉魚潭，一路朝龍騰斷橋的方向前進，沿途映入眼簾的整片鮮黃，都是一田又一田休耕轉作的綠肥，油菜花撒滿田埂；因水質的來源與地質相當合適養殖業，加上苗栗縣政府的全力推廣和輔導，造就了龍騰大閘蟹生態養殖場。養殖場的地理環境恰好處於緊鄰北部的多雨較冷帶，更是中南部亞熱帶氣候的交界地，加上河川沖積出的肥沃地質和環山高地的相輔相成，這一高一低的地形，日間吹撫亞熱帶氣候暖風，夜間低溫南壓形成，自然交織出極大的日夜溫差，相當適合蟹群們居住覓食，游移活動。與天然屏障的相映成趣的龍騰大閘蟹養殖場，歡迎您來訪！【如欲安排前往建議事先電話聯繫確認】","TrafficGuidelines":"開車1.開車直達養殖場：至三義交流道走苗51-1直達龍騰養殖場。2.開車經勝興車站：至三義交流道經13省道轉苗49至龍騰大閘蟹生態養殖場。","Add":"苗栗縣三義鄉龍騰村外庄10號","OpenHours":"養殖場在每年的10月~12月開放參觀！","City":"苗栗縣","Town":"三義鄉","Coordinate":"24.264536,120.83331199999998","Py":24.3892633,"Px":120.76947599999994,"Picture1":""},{"Name":"綠葉方舟休閒農場","Tel":"037-875868","Toldescribe":"綠葉方舟位於舊山線一號隧道旁一處山林幽雅之處，地主原為種植林木植栽，二十多年來低密度開發，營造美麗自然的山林花園。91年底開始建設規劃園區，設計建造森林餐廳、林間步道、水池景觀設施，成為具有異國情調的遊憩區。園區林相豐富，種植二百多株山櫻花，在秋冬之季開放季節嬌驗美麗，還有櫸木、油桐、相思、楓樹、五葉松、樟樹、茄冬等，以及許多種類的花兒；山茶花、野薑花、百合茶爭相鬥豔，偶爾昆蟲頑皮逗趣，常見有甲蟲、蝴蝶、螢火蟲，還有大冠鷲在天際翱翔，有如表演絕技，尤其生態資源更是豐富。四周環境幽然怡人，清晨的露珠與霧氣泛灑林間，群鳥爭相歌詠百花芳香，林間中洋溢著一股寧靜與清爽，有著森林式的環境伴隨，心情也放鬆下來，快樂無比。綠葉方舟除了可帶著愉悅之心漫遊，享受森林浴和自然生態有約外，也可在森林餐廳享用美食，特地請一級棒廚師，提供不同一般遊樂區的精緻美食。開放的建築設計，二樓有露天陽台、一樓挑高，外觀設計簡潔大方、結合鐵雕、原木、磚瓦、壁爐等設計，洋溢著異國浪漫悠閒風情。【如欲安排前往建議事先電話聯繫確認】","TrafficGuidelines":"開車自國道1號三義交流道下，接台13線往三義方向，到勝興車站後循指標即可抵達。","Add":"苗栗縣三義鄉勝興村12鄰綠舟路1號","OpenHours":"平日10:00~19:00、假日09:00~19:00；供餐到19:00","City":"苗栗縣","Town":"三義鄉","Coordinate":"","Py":24.3932227,"Px":120.77856959999997,"Picture1":""},{"Name":"鍾山蜜蜂休閒農場","Tel":"037-834550","Toldescribe":"一到路口，就看到綠意花圃中聳立的一棟紅色建築物，這裡就是鍾山蜜蜂休閒館，老闆從過去單純養蜂，到現在將整體營造成兼具賣場、展示、教育說明，走進這裡，所有您想要問的，想要買的，想要看的，一應俱全。這裡二樓是設備齊全的視聽教室，播放著關於蜜蜂講解的各式影帶，非常適合校外教學。一樓設有賣場，各式不同的蜂蜜、蜂蜜醋都有，還提供您品嚐，口味符合需求再買。賣場的對面牆壁則有一些各式蜜蜂生態的介紹，並提供桌椅讓您可以一邊品嚐美味的蜂蜜，一邊觀看製作用心的各式解說圖片與說明文字。一樓設有賣場，各式不同的蜂蜜、蜂蜜醋都有，還提供您品嚐，口味符合需求再買。賣場的對面牆壁則有一些各式蜜蜂生態的介紹，並提供桌椅讓您可以一邊品嚐美味的蜂蜜，一邊觀看製作用心的各式解說圖片與說明文字。放眼望去，周邊更有寬闊的涼亭與綠意盎然的花圃，襯著綠色草皮，讓您可以聽著蟲鳴鳥叫，迎著徐徐涼風，這裡不但有得吃、有得玩、有得看、有得聽，來這裡一踏，您絕對不虛此行。","TrafficGuidelines":"開車國道一號頭份交流道下→左轉接124縣道往三灣方向直行→看到7-11超商右轉接台3線→過峨嵋橋約300公尺左轉→沿指標繼續前進即抵。","Add":"苗栗縣三灣鄉銅鏡村大銅鑼圈100號","OpenHours":"","City":"苗栗縣","Town":"三義鄉","Coordinate":"24.667248,120.97474899999997","Py":24.667248,"Px":120.97474899999997,"Picture1":""},{"Name":"山板樵休閒農場","Tel":"037-875766","Toldescribe":"山板樵休閒農場主人原本從事傳統工藝的木雕創作，但深恐雕刻藝術沒落，毅然決然地成立「山板樵工作室」。在山板樵農場內，已有千個以上屬於自家人彩繪的臉譜，個個都獨具創意與趣味，也磨練出全家人的耐心與意志力，更堅定推廣中國繪畫藝術、臉譜彩繪的決心。同時，山板樵農場也獲得行政院文化建設委員會的認同，並讓這座充滿創意彩繪的山板樵進而成立臉譜文化生活館。這座充滿藝術的農場裡有廣大的露營區，讓遊客有機會享受這個藝術空間、獲得一趟知性之旅。目前農場的套裝行程可分為3類，其中最輕鬆、最富趣味的，就是精緻臉譜藝術半日遊，參加這項行程者不但可以參加臉譜DIY活動，還可以獲得一份美味的小點心，喜歡戶外活動的還可以選擇另外兩項知性學習的活動。團體旅遊另有供許多服務，請事先預約。農場擁有許多珍貴的自然資源，園內種植各式香草植物，隨著四季的季節變化；還有有多季節性的活動，如採竹筍、挖蓮藕、採豆苗、撈蛤蜆、捉泥鰍、撲流瀛等，尤其在夏季可見數種螢火蟲群聚之壯觀景象，如黑翅螢、條背螢、山窗螢、台灣窗螢、黃緣螢、端黑螢等。有機會來趟山板樵休閒農場做個小小的自然探索之旅。","TrafficGuidelines":"開車從國道一號三義交流道下行，接著右轉進入台13線，並往北之三義銅鑼方向行駛，經三義木雕街至光復路口紅綠燈後即右轉，接著往大湖方向行駛約5公里，見右手邊土地公廟岔路時左轉，即可到達。","Add":"苗栗縣三義鄉雙潭村138號","OpenHours":"9:00-18:00，除夕休假","City":"苗栗縣","Town":"三義鄉","Coordinate":"24.3988475,120.79820289999998","Py":24.3988475,"Px":120.79820289999998,"Picture1":""},{"Name":"天地外休閒農場","Tel":"037-476986","Toldescribe":"天地外農場位於苗栗縣三灣鄉永和山水庫上游，碧綠的水面被群山及樹林圍繞，可見山靈水秀之氣，有時清晨會覆上一片薄霧，到黃昏時，可見夕陽灑在水面的波光，如同農場的名字像天地外的世外桃源。農場主人黃阿武年近七旬，是位樂天好客的長者，本是肉販出身，因對農務有高度興趣，因此將祖先留下的土地栽種水果，全身投入經營，他種植文旦柚已有二十一年，光是改良一個品種文旦柚就得花上十年時間，並獲獎無數。在文旦產季時，農場鐵皮屋裡總是擺滿了文旦柚，場主表示，剛採收下的文旦柚需不著地的擺放三至七天，如果碰到雨天或有露水時不可以採收。擺放三至七天的目的是要使水份蒸發，才能使皮軟肉甜。而在農藥使用上，場主都會定期檢驗，這裡的柚子還通過吉圓圃認證。灌溉農作物的用水都是使用山泉水，而場主也都是和水果喝一樣的水，因此黃阿武對於他種植出的水果品質是深具信心的，甚至有許多識貨者，每到文旦產季都會遠道而來，將文旦載滿整車回家。在文旦柚產季過後一直到過年前，農場還會生產比文旦柚甜度更高的香檳柚，如果想要品嚐，可要趁早哦！農場除了文旦及香檳柚外，亦有美人柑、無籽桶柑、虎頭柑、海梨等；花季時，還可欣賞到櫻花、茶花、杜鵑花、桂花，亦可露營，場主歡迎各地民眾前來採果、賞花、賞景，另外農場還提供水果宅配服務。【如欲安排前往建議事先電話聯繫確認】","TrafficGuidelines":"開車從頭份交流道下左轉中華路進入頭份市區約三百公尺後，至下公園再左轉水源路跨過中港溪橋，車程約15分鐘後進入永和山水庫，越過壩頂直上，依天地外休閒農場指標環湖而行，約15分鐘即可到達。","Add":"苗栗縣三灣鄉永和村明坑8-2號","OpenHours":"","City":"苗栗縣","Town":"三灣鄉","Coordinate":"24.647279,120.92997100000002","Py":24.647279,"Px":120.92997100000002,"Picture1":""},{"Name":"侑橘休閒農場","Tel":"0988-586352;0919-674862","Toldescribe":"侑橘休閒農場位於三灣鄉永和山頂上，境內有永和山水庫導水區，終年山泉由此宣洩而下，周邊樹林掩映於湖畔波光粼粼，農場可俯瞰水庫全景，群山環巒、山水相映的風光，氣勢不凡，每當夕陽西下，有許多動植物吱吱喳喳鳴響，像似傳遞訊息，偶見老鷹在空中展翅飛翔，表演它的絕技尋找獵物。民宿主人過著退休農家生活，因訪客絡繹不絕，遂將這片如詩如畫的好風光，開放給喜愛寧靜生活的有緣人，同來欣賞大自然的天然美景。侑橘休閒農場栽種數10種水果以開放觀光採果為最主要特色，有茂谷、椪柑、桶柑（年柑）、紅柑（又稱美人柑），色澤紅通通很吸引人。白柚、西施柚、葡萄柚、文旦柚、檸檬、香蕉，還有象徵吉利喜氣洋洋的金桔、三灣梨，一年四季果香四溢飄香，終年均可品嘗到各種風味水果，民宿內有3張百年前阿祖的眠床，園內還有DIY捏麵人，只收材料費，肯定能讓來此的遊客體會多重的農村生活情趣。","TrafficGuidelines":"開車自國道三號頭份交流道下接珊珠湖，經三灣至永和山水庫，循指標即可抵達。","Add":"苗栗縣三灣鄉永和村北坑12-1號","OpenHours":"08:00~18:00，請事先預約","City":"苗栗縣","Town":"三灣鄉","Coordinate":"24.6434081,120.93366600000002","Py":24.6434081,"Px":120.93366600000002,"Picture1":""},{"Name":"老官道休閒農場","Tel":"0932-579127","Toldescribe":"以露營為主題的老官道休閒農場，占地約有10公頃，其位於最受歡迎的草莓王國苗栗縣大湖鄉。廣闊的草原與悠靜的湖畔，這是老官道休閒農場得天獨厚的好環境，在這裡您可以享受藍天和綠地的大自然氣氛，夜晚還有都市所見不到的滿天星斗，陪您一整夜。而喜歡雲海山色的朋友們，更要把握晨間時光，一次賞盡老官道的山嵐景緻。農場內除了一望無際的綠色草原之外，更建有高雅的原木餐桌區及泡茶小屋，讓每位旅人都可以在舒適的環境中，體驗野地露營的樂趣。而愛乾淨的露營者，還能隨時享用乾淨的淋浴設備及全天候的熱水，提供旅人清爽的露營生活。老官道休閒農場最適合進行單車活動，尤其是輕量級的老官道自行車道，最適合全家大小同遊。另外，每年5～6月桃李季時期，更有甜美的桃李香、陣陣撲鼻而來，不過這些可都是果農辛苦栽種的成果，也想品嚐水果香的旅人，可以向當地的果農購得，切勿自行採收果實。緊鄰在旁的鯉魚潭水庫，可說是當地最佳的釣魚及散步地點，建議來訪的旅人至露營區之前，也可以前往美麗的鯉魚潭之環潭步道走走，欣賞秀麗的湖水山色。傍晚回到露營區之後，可自行烹調餐點，一邊享用大自然香的晚餐，一面可遙望美麗星斗與銀河，浪漫的露營生活其實很容易。【如欲安排前往建議事先電話聯繫確認】","TrafficGuidelines":"開車1.國道一號從132公里處的苗栗交流道下行，往苗栗方向行駛約600公尺，再由龜山橋前方左轉接台72線快速道路，抵達快速道路終點汶水，右轉接台3線往南，到142.5公里處見指標「老將軍廟」左轉上坡經老官道路即到達。2.國道三號從130公里處的後龍交流道下行，接台72號東西向快速道路向東行，抵達快速道路終點汶水，再右轉接台3線往南，到142.5公里處見指標「老將軍廟」左轉上坡經老官道路即到達。","Add":"苗栗縣大湖鄉新開村5鄰12-1號","OpenHours":"周休假日9:00~16:00，平日可預約","City":"苗栗縣","Town":"大湖鄉","Coordinate":"24.3804378,120.83266630000003","Py":24.348422,"Px":120.82708300000002,"Picture1":""},{"Name":"石門客棧休閒農場","Tel":"037-951129","Toldescribe":"「石門客棧」位於海拔400公尺的山上，翠綠的山頭上有雲霧層層疊繞，空氣清新，在露台座位區用餐心情舒爽。從露台往下望，一大片都是水梨、楊梅、柑桔果園，每年6月到9月盛產高接梨，水分飽滿、滋味甘甜；水果採收不完，田媽媽張玉麗便動動腦筋將水果入菜、草莓和水梨季節的餐點成了店裡的招牌料理。冬天有「炸草莓」、「草莓火鍋」，夏天則以高接梨設計出創意田園料理「和風水梨雞肉捲」、「水梨燉牛肉」、「拔絲水梨」等，除了可以品嚐到當季水果的清甜，更可吃到張玉麗媽媽的創意。「水梨杏仁鮮雞湯」是10年前開店時菜單上就有的鎮店湯品，張玉麗回想起自己小時候喉嚨不好，母親用川貝枇杷湯當底，加入水梨、杏仁熬煮30分鐘，滋養喉嚨、保護氣管；後來開店後，這道湯很受客人歡迎，每次熬煮時都想起媽媽的愛心。石門客棧名符其實地提供客人舒適用餐、歇腳的環境，除了可體驗採果、擂茶DIY等活動外也經營民宿。玉麗媽媽希望來這裡用餐的客人都有回娘家的感覺。除了水果餐，老客人上門必點「石門東坡」、「桔醬玉米雞」、「四季肥腸」等客家料理。她信心滿滿地說：「家常菜最厲害的地方，就是客人在外面吃了一圈後，還會回頭想念的好味道。」【如欲安排前往建議事先電話聯繫確認】","TrafficGuidelines":"開車國道1號苗栗交流道下，台72線東西向快速道路，汶水交流道下，右轉接台3線往大湖方向，台3線139.4公里處左轉依指標前進即可達目的地。","Add":"苗栗縣大湖鄉栗林村竹橋20號","OpenHours":"09:00~20:00","City":"苗栗縣","Town":"大湖鄉","Coordinate":"24.3334537,120.78666759999999","Py":24.3633101,"Px":120.84488850000002,"Picture1":""},{"Name":"菊園休閒農場","Tel":"037-951522","Toldescribe":"位於苗栗大湖與三義交界處的「菊園民宿農場」，可說是當地最具風格的民宿農場，而這裡的房型大緻可分為兩區域：位於菊園民宿農場主建築物下的房型，多有獨有的浪漫風格，讓人有如置身峇里島或五星級飯店的優質感受。而位於菊園庭園後方的民宿，是讓人倍感悠閒的小木屋房間，這兒可是發現螢火蟲的好地方，喜歡大自然生態的旅人，一定會喜歡上這裡。當然了，無論旅人選擇的房型為何，一定都能感受到菊園民宿的熱情與優雅魅力。菊園民宿農場位於海拔800公尺的山坡，視野極佳的地理優勢，讓這兒成為賞景觀日的首選，也可看到獨有雲海景觀，緊鄰的除了有「出關古道」外，登山客最愛的「關刀山步道」也在不遠處。喜愛登山健行的旅人，一定得先去關刀山步道走訪一趟，這兒沿途有豐富的昆蟲生態，絕對能滿足登山客的好奇心。而在隔日清晨時，別忘了趕在日出前登上出關古道的涼亭，觀賞大湖的日出之美。菊園民宿農場每年有不定期的客家活動，可供來訪的旅人一同參加，不但如此，凡是遇到果園的採收季節，菊園民宿農場也會開放自家果園，讓旅人可享受採果樂趣。【如欲安排前往建議事先電話聯繫確認】","TrafficGuidelines":"開車：1.中山高公館下交流道→７２線快速道路走到底→右轉接台三線→直至１３７.５公里處右轉接苗１３０線→直走即可到達菊園客家庄。2.中山高轉國道４號至東勢端下→接台３線續行→經東勢、卓蘭至大湖鄉→接台三線至１３７.５公里處左轉接苗１３０線→直走即可到達菊園客家庄。3.中山高三義交流道下→往三義市區方向過兩個天橋第一個紅綠燈處右轉（紅綠燈處看見右邊民享藥局右轉}→接苗１３０縣道→薑麻園→２６.８公里處→菊園客家庄","Add":"苗栗縣大湖鄉栗林村薑麻園13號","OpenHours":"08:00~19:00，全年無休 進房15:00 退房11:00","City":"苗栗縣","Town":"大湖鄉","Coordinate":"24.3988475,120.79820289999998","Py":24.387598,"Px":120.82464099999993,"Picture1":""},{"Name":"阿連休閒農場","Tel":"037-951111","Toldescribe":"位於苗栗大湖鄉、台3線上的「阿連休閒農場」，才一進入農場的休息小屋，就可見到掛滿牆面的獎牌及獎狀，以及數十篇接受採訪的報導文章，在在證明阿連休閒農場的主人絕對是農業界的高手。阿連休閒農場最有名氣的是高接幸水梨，一般來說，幸水梨的果肉帶有淡淡甜味，外觀都是呈現淡褐色，不過在主人的細心照顧下，阿連休閒農場的幸水梨永遠就是比別人更大、更甜蜜，而這更成為農場吸引人的重要關鍵。擁有特等獎的「阿連休閒農場」，所使用的是德國及各類高級有機肥料，即使每年僅有2個月的採果季節，仍勤勞施肥並定期翻動土壤，確保每株果樹都能獲取足夠的營養。而除了一般基本功之外，每年還得重新接種新的枝幹，很難想像，1株梨樹竟然可嫁接5種梨樹枝，也接種出更美味、更甜蜜的幸水梨，怪不得每年7～8月旅客都會特地前往，以採收與享用果實為樂。【如欲安排前往建議事先電話聯繫確認】","TrafficGuidelines":"開車1.國道1號從132公里苗栗交流道下行，往苗栗方向行駛約600公尺，再由龜山橋前方左轉接台72線快速道路，到快速道路終點汶水右轉接台3線往南，到141公里處見指標即到達。2.國道3號從130公里後龍交流道下行，接台72號東西向快速道路向東行，到快速道路終點汶水右轉接台3線往南，到141公里處見指標即到達。","Add":"苗栗縣大湖鄉栗林村內雙坑6號","OpenHours":"","City":"苗栗縣","Town":"大湖鄉","Coordinate":"24.3334537,120.78666759999999","Py":24.373984,"Px":120.83369300000004,"Picture1":""},{"Name":"好農村休閒農場","Tel":"037-951533","Toldescribe":"好農村觀光農園位於大湖鄉，ㄧ個盛產草莓的地方，好農村農園不單單只有草莓而已，還有很多讓人一飽口福的水果，如仙人果、李子、水蜜桃、甜桃、高接梨、椪柑、海梨等，都是這裡所種植的水果。如此的多樣化，讓好農村幾乎一年四季都有不同的水果產出，也讓消費者不論何時何地蒞臨好農村，都一樣能享受到摘採水果的樂趣喔！經營二十幾年的好農村，老闆賴先生一直秉持著用心培育的原則，才會年年出產甜美又多汁的水果，老闆說這裡風景優美，水果豐碩，適合親子同遊、讓人流連忘返呢。而不同於其他農園，這裡有教導遊客自行DIY醃漬桃子、李子等有趣活動，每遇產季可見大、小朋友七手八腳的玩的不亦樂乎；還有十公里長的觀光步道一路還能有人導覽解說，沿路欣賞明媚風光，若走累了，不妨約三五好友至這裡聯誼嘍！【如欲安排前往建議事先電話聯繫確認】","TrafficGuidelines":"","Add":"苗栗縣大湖鄉栗林村薑蔴園10號","OpenHours":"","City":"苗栗縣","Town":"大湖鄉","Coordinate":"24.3804378,120.83266630000003","Py":24.3862353,"Px":120.823849,"Picture1":""},{"Name":"苗栗大湖四份","Tel":"(04) 25261165 #2303","Toldescribe":"本戶外教室成立於民國七十八年，是全國第一處設立之水土保持戶外教室的觀光果園。地近省道台三線一百三十六公里路旁，一路上花木扶疏，順著產業道路爬坡而上，左邊井然有序、綠草成茵的觀光果園隨之映入眼簾，右邊低矮的農舍牆上，貼心的水保設施配置圖，彷彿在對遊客們訴說，水土保持戶外教室就在眼前。座落在微微起伏的山坡上的水土保持戶外教室，水土保持相關的設施卻是一應俱全：有山坡上常見的山邊溝、L型側溝、弧型溝、蝕溝節制壩，還有模擬降雨沖蝕區，以及植生覆蓋，向到訪的遊客展現水土保持局的用心良苦。這裡的觀察區，比一般展示用的水土保持模型要來得大，讓植生覆蓋區清清楚楚的突顯出來，更讓民眾清楚了解植生覆蓋的護土能力。民眾來到這裡除了更深入了解各種水土保持工法之外，還有水果可採，是學校戶外教學的好地方。【如欲安排前往建議事先電話聯繫確認】","TrafficGuidelines":"","Add":"苗栗縣大湖鄉栗林村南湖路段緊鄰台三線南側324號","OpenHours":"上午8:00-下午5:00","City":"苗栗縣","Town":"大湖鄉","Coordinate":"24.3804378,120.83266630000003","Py":24.3804378,"Px":120.83266630000003,"Picture1":""},{"Name":"新美休閒農場","Tel":"037-951196","Toldescribe":"新美觀光果園位於大湖鄉薑麻園栗林村雲洞山，園主謝新斗先生經營果園已有三十年的經驗，果園面積廣達三甲多地，其中有五分地的甜桃，二甲多的各品種李子，三分地的紅龍果，五分地的牛心柿，每年從五月開始至十一月都有水果生產可供採果（五月至七月桃李產期，八月至十一月火龍果、牛心柿產期），由於氣候良好及管理得宜，各類水果品質甚佳，頗有口碑。除了開放遊客民眾採果，並指導遊客水柿去澀DIY，及導覽果園體驗客家風情。新美觀光果園為配合遊客採果、休閒，園內並設有遊園步道，經觀景亭、百年樟樹、大奇石、供遊客駐足觀賞，並與鄰近民宿、餐飲業者合作，供遠道而來的旅人歇腳，留下來欣賞大湖雲洞山上的大自然奇觀氣候變化萬千、雲物飄邈，夜晚聆聽蟲蛙競唱，這是多麼悏意的旅遊行程呀！【如欲安排前往建議事先電話聯繫確認】","TrafficGuidelines":"開車1.苗栗交流道下，往大湖、八份，台3線137.5公里處，往薑麻園130線28公里處。2.三義交流道下，往130線、往聖衡宮即可扺達。","Add":"苗栗縣大湖鄉栗林村薑麻園8號","OpenHours":"上午08:00~下午19:00","City":"苗栗縣","Town":"大湖鄉","Coordinate":"24.3804378,120.83266630000003","Py":24.367198,"Px":120.83071799999993,"Picture1":""},{"Name":"悠然休閒農場","Tel":"037-995925","Toldescribe":"「悠然休閒農場」四周環境清幽，有高山、有清澈山泉水，此地開墾於民國76年現任局長吳輝龍看中此地，認為此地是全台灣省最佳之處，配合水保局規劃做水土保持戶外教室，代表中華民國，給全世界水土保持協會專家參觀，之後成立了這座中華民國第一所戶外教室，上課對象主要有幼稚園學生到大學學生都有，若有想要來此上課，可聯絡行政院農業委員會、中華水土保持學會、國立台灣大學、水土保持司第二工程所或國立中興大學。園區面積3.7公頃，園內種植大梨、柑橘等水果，可讓民眾自行採果，園內有美化果園、果園植草綠化，果實口感好、清甜、爽口，吃後都讚不絕口；園內植草綠化，有設置節制壩、混凝土孤形溝，兩邊配合植生，同時也栽植許多花草。園內設有步道，慢遊步道欣園內景色，站在園內最高點，可俯視台3線公路來來往往有如車水馬龍車輛，也可欣賞一大片山林景色及公路旁片片梯田，夏季時秋蟬吱吱喳喳叫響，竹雞叫著「四隻一盤、四隻一盤」，細心聆聽牠們也有特殊傳達方式，相當有趣。【如欲安排前往建議事先電話聯繫確認】","TrafficGuidelines":"開車國道1號公館交流道下，轉台6線經大湖，轉台3線過卓蘭竹露後約7公里處。","Add":"苗栗縣大湖鄉栗林村四份17-1號","OpenHours":"8:00-18:00","City":"苗栗縣","Town":"大湖鄉","Coordinate":"24.3804378,120.83266630000003","Py":24.373292,"Px":120.8424963,"Picture1":""},{"Name":"雲也居一休閒農場","Tel":"037-951530","Toldescribe":"薑麻園的薑是「種薑」，肉身較長、厚實、芽點多，種在排水性良好、土質紮實的帶石粒土壤中。薑很能吃肥，每種兩年要休耕五年，讓土壤以自然的方式恢復天然養份。老薑香氣足、辣度夠，買回家可再種嫩薑、煮湯、燉麻油雞和爆香都是上上之選。務農人家習慣用薑去腥，泡薑茶增加抵抗力、預防感冒，是注重美味和養生必備的生活保健食材。客語「薑麻」是薑母的意思，田媽媽彭麗貞一家人在這裡種出漂亮薑母，研發出一系列薑菜單，2011年獲選為十大神農獎第一名時她謙虛說道：「我們是務農人家，加入田媽媽之後跟著老師學習烹調、經營管理，才有今天的成績。」薑麻園的薑是「種薑」，肉身較長、厚實、芽點多，種在排水性良好、土質紮實的帶石粒土壤中。薑很能吃肥，每種兩年要休耕五年，讓土壤以自然的方式恢復天然養份。老薑香氣足、辣度夠，買回家可再種嫩薑、煮湯、燉麻油雞和爆香都是上上之選。務農人家習慣用薑去腥，泡薑茶增加抵抗力、預防感冒，是注重美味和養生必備的生活保健食材。薑麻園的薑是「種薑」，肉身較長、厚實、芽點多，種在排水性良好、土質紮實的帶石粒土壤中。薑很能吃肥，每種兩年要休耕五年，讓土壤以自然的方式恢復天然養份。老薑香氣足、辣度夠，買回家可再種嫩薑、煮湯、燉麻油雞和爆香都是上上之選。務農人家習慣用薑去腥，泡薑茶增加抵抗力、預防感冒，是注重美味和養生必備的生活保健食材。除了餐點之外還有薑飲料、餅乾等手工點心，夏天爽口、冬天暖胃。「薑汁撞奶」是專家實地輔導的薑飲料，在現打的薑汁中沖進熱牛奶，薑香和牛奶香味隨著熱氣緩緩飄進鼻腔，溫和暖熱讓人心裡升起一陣暖意，這是在海拔七百公尺的幸福。【如欲安排前往建議事先電話聯繫確認】","TrafficGuidelines":"開車南下：國道1號132公里下苗栗交流道，轉接台72線東西向快速道路抵達汶水，沿台3線至138公里，再接苗130線至27.5公里處可抵達。北上：國道1號150公里下三義交流道，再接苗130線至27.5公里處可抵達。","Add":"苗栗縣大湖鄉栗林村薑麻園6號","OpenHours":"平日08:00~20:30；假日08:00~22:00 (只要天色許可都可以參觀) 供餐時間11:30~22:00(點餐至19:00) 民宿早點供餐時間08:30~9:30","City":"苗栗縣","Town":"大湖鄉","Coordinate":"24.3849628,120.8278490","Py":24.3849628,"Px":120.82784900000001,"Picture1":""},{"Name":"隆昌紅棗休閒農場","Tel":"037-239268","Toldescribe":"公館鄉隆昌阿泉紅棗觀光農場位於苗栗縣中部，東南山勢連接丘陵地和平原面積各占一半，氣候屬副熱帶高溫多雨氣候，土壤以黃棕色土壤及沖積土層為主。園主邱錫昌先生獲得農會第12屆代表及多項獎狀，也是紅棗產銷班第一班班長，隆昌阿泉紅棗觀光農場並於「2008紅棗王」比賽榮獲十大優質果園之ㄧ殊榮，每年7月下旬至8月下旬開放果園供觀光採果。園內除種紅棗外還有百香果以及蜜雪梨並推出紅棗乾、紅棗茶等，使遊客除採紅棗外還可有不同選擇，來一趟公館可享受多種水果風味一舉數得，除公館鄉是陶的故鄉，也是全省唯一的紅棗產地，紅棗栽培面積達60公頃，是全省最大面積的紅棗專業栽培區，主要集中在石墻村一帶。紅棗早年自大陸移入種植，生長情形良好，品質優良，所生產的紅棗為上等中藥材，可配合各類食物燉煮，營養豐富。紅棗樹上結實纍纍，成串果粒滿掛枝頭，看了叫人忍不住想摘取下來當場大啖一番。","TrafficGuidelines":"開車國道一號苗栗公館交流道下，台6線往大湖方向遇褔基派出所(24K處)右轉前行約900公尺左轉，直行約300公尺","Add":"苗栗縣公館鄉石墻村14鄰292-1號","OpenHours":"8:00~18:00，全天無休","City":"苗栗縣","Town":"公館鄉","Coordinate":"24.3988475,120.79820289999998","Py":24.473368,"Px":120.81783599999994,"Picture1":""},{"Name":"龍鳳漁港","Tel":"037-464-155；傳真037-477-667","Toldescribe":"位於竹南鎮的龍鳳漁港，是一處天然漁港，在縣政大力推動富麗漁村及漁港的美化政策下，龍鳳漁港有漁貨直銷中心，每天下午一點三十分只要天氣狀況良好下，都有漁貨拍賣，讓大眾直接購買新鮮海產回家烹調，或者在這裡也有代客烹調的餐廳，非常的方便。港區的景觀平台，及照明設備完善，在夜間更增加不少情調，讓海邊的夜景也更加美麗。另外龍鳳漁港還有一項活動即是〞牽罟〞，讓喜觀嘗試不同海岸捕魚，當作是一個休閒活動，也讓外界團體參與嘗試這一項古老的捕魚方式。而且在這裡也可以海釣，在不同的季節釣各種不同的魚貨，也不錯喔！龍鳳漁港有一片木麻黃樹，是一處不錯的乘涼休憩好地點，讓遊客除了吃海產、看海景外，也可以走走運動一下筋骨，或者騎自行車。喜歡釣魚的朋友，不妨換一換地方，來這裡試試您的手氣，喜歡海鮮的朋友不妨來參觀比較一下，是否合乎您的口味！","TrafficGuidelines":"開車國道三號：國道三號龍鳳交流道下，接台61線（西濱快速道路）至龍江街左轉，往濱海方向前進即抵。","Add":"苗栗縣竹南鎮龍鳳里10鄰海埔38號","OpenHours":"港口全天開放；漁貨買賣於中午以後開始、傍晚結束。","City":"苗栗縣","Town":"竹南鎮","Coordinate":"","Py":24.692037,"Px":120.86512119999998,"Picture1":""},{"Name":"長青谷休閒農場","Tel":"04-25893329","Toldescribe":"以歐洲農莊式建築風格為主題的「長青谷森林遊樂區」位於苗栗的水果之鄉卓蘭，為一處佔地二十甲的果園農場，遊樂區內大致可分為果園區、歐式農莊民宿及露營烤肉區等。區內皆是翠綠色的森林步道，且一年四季有不同的花草樹木，綻放整座園區，每到果樹成熟時期，更吸引大量遊客前往。除此之外，清澈的溪水及瀑布，更是長青谷森林遊樂區的重要景觀。遊樂區內的綠色森林步道，可提供走訪的旅人享受芬多精香氣，而當旅人遇上每年7-8月的採果季節時，還可體驗採收果實的農村生活。喜歡溪流瀑布或悠閒垂釣的旅人，在長青谷森林遊樂區裡也能體驗這項樂趣。在露營烤肉區旁，正是遊樂區內最愜意的瀑布流水區，來訪的旅客不但能在此戲水嬉戲，還可以垂釣溪流中的魚兒、現捕現烤，體驗自給自足的好味道。無論旅客所進行的是採果或垂釣，在長青谷森林遊樂區裡，都能體驗到自給自足的趣味生活，如果還嫌不夠，遊樂區內也提供了低價格的住宿服務，非常適合學生及大型團體前來舉辦活動，不但讓旅人省下荷包，還可以享受美麗的大自然環境。而在無光害的長青谷森林遊樂區裡，更能觀賞到壯麗的星河景象，讓旅人可以悠閒的觀星、談天一整夜，十分奢華。【如欲安排前往建議事先電話聯繫確認】","TrafficGuidelines":"開車1.南下：國道一號從132公里處苗栗交流道下行，往苗栗方向行駛約600公尺，再由龜山橋前方左轉接台72線快速道路，抵達快速道路終點汶水，右轉接台3線往南，到了148公里處左轉進入卓蘭市區中山路，再右轉卓平街循指標往坪林方向，到食水坑即可到達。2.北上：國道一號從165公里處台中系統交流道接國道四號往東行，高速公路終點東勢端接台3線往北行，到了148公里處右轉進入卓蘭市區中山路，再右轉卓平街循指標往坪林方向，到食水坑即可到達。","Add":"苗栗縣卓蘭鎮上新里食水坑78號","OpenHours":"08:00-17:00，週二、週四休園","City":"苗栗縣","Town":"卓蘭鎮","Coordinate":"24.3988475,120.79820289999998","Py":24.307667,"Px":120.84584900000004,"Picture1":""},{"Name":"507高地美健休閒農場","Tel":"04-23719716","Toldescribe":"位於苗栗縣卓蘭鎮鯉魚潭水庫南側的「507高地美健農場」，顧名思義，位於海拔507公尺的高地，前方可以鳥瞰卓蘭鎮，後方可遠眺鯉魚潭，平原、丘陵、高山盡收眼底，不論是雲霧飄渺或夕陽餘暉，也因為四季呈現不同的風光明媚，是欣賞風景、觀光旅遊的好景點。到此用餐或喝下午茶，農場主人會熱情招呼，希望大家留到晚上觀賞美麗的夜間燈景，因為環視10餘鄉鎮的漂亮夜景，是本農場的招牌景色。餐廳四周也特地利用強化玻璃，就是為了讓遊客安心欣賞美麗的風景。而農場內的樹木很多、形狀特殊，是森林浴的絕佳環境。農場在黃昏時有夕陽餘輝滾落大安溪，即「大安溪金帶」的線條美，在鯉魚潭水庫上夕陽彩雲，矇朧月色，偶有一道殘陽鋪水中，呈現半湖瑟瑟半湖紅的生趣美景；有月亮的夜晚站在平台上，幽寂而挺拔的中央山脈與其腳下的萬家燈火相襯而出，是為形象美。當碰上陰雨連綿、雲霧彌漫的天氣，可看雲霧中的山，如置身於飄緲含蓄的雲霧之中，發現方動旋靜、方靜旋動的動態美，稍縱即逝，令人回味無窮。偶而有斜風細雨、霧藹薄雲的景致，使風景產生了一種動靜對比的觀賞效果。農場夜間非常靜謐，植物、生物多種天籟之聲奏鳴，聽來悅耳舒暢，可以與絲竹管弦媲美。特別的是農場主人為退休的台中法官，平時喜愛研究養生之道，收集了許多關於保健資料，因此園區內不僅種殖了各式香草和中藥草植物，餐飲也是利用園區植物所製作成的各種料理。從車前草、決明子、絞股蘭（七葉膽）到咸豐草，你絕對想不到這些不起眼的綠色植物不但好吃，且對人體有這麼多好處，如果你不介意，還可以到園區逛逛認識植物，跟主人聊聊這些不同的功效，絕對讓你獲益良多。【如欲安排前往建議事先電話聯繫確認】","TrafficGuidelines":"開車1.國道1號-下三義交流道-台13縣道-苗52道7.8公里處。2.國道3號-接4號東西向快速道路-轉國道1號-下后里交流道-台13縣道-苗527.8公里處。3.國道3號-接4號東西向快速道路-轉三豐路-台13線-苗52到7.8公里處。","Add":"苗栗縣卓蘭鎮西坪里西坪134之10號","OpenHours":"週一至週五10：00~18：00、 週六日及例假日9：00~20：00","City":"苗栗縣","Town":"卓蘭鎮","Coordinate":"24.3334537,120.78666759999999","Py":24.3334537,"Px":120.78666759999999,"Picture1":""},{"Name":"壢西坪休閒農業區","Tel":"04-25899221","Toldescribe":"位於苗栗縣卓蘭鎮的壢西坪休閒農業區於98年正式核准成立，壢西坪原來是一處大安溪畔的河階台地，緊鄰關刀山，平台上地勢平坦而廣闊，以前並無人居住，大部分的人是居住在台地邊緣較低的河階上，一來取水方便，二來也可以管理壢西坪上的農作。直到民國60年代才開始有了果樹的種植，當時居民大多種植橘子樹，所以稱為「西坪柑橘專業區」，後來因橘樹病蟲害的關係，加上橘子價不如前，村民紛紛改種植梨子樹，後期漸漸有人種植花卉、芭樂、楊桃等其他農作物，這也是為什麼壢西坪的生產以果園為主力的原因。因休閒農業的風氣鼎盛，果農紛紛轉型成為觀光果園，市場需求又因週休二日而加大，也有許多人經營了具有特色的休閒農場，像是花露花卉農場、台三有機農場、怡心園、夢田香草、荳媽媽觀光農園、金葉山莊、法雨軒等等，希望能將「三生」的概念實踐於壢西坪，望其成為大安溪畔最美麗的桃花源！為了更有效率的推廣壢西坪休閒農業區，當地居民組成了「壢西坪產業文化協會」，為觀光客規劃套裝行程，讓大家更能了解當地的文化與特色，也可以使觀光資源平均分配。不論一日遊或是二日遊、住宿、預約果園採果、DIY活動，甚至用餐等，壢西坪產業文化協會都能依民眾不同的需求以及配合時令而安排最好的服務與規劃。如果你是第一次要到卓蘭遊玩，卻又不曉得如何開始，不妨打通電話，讓壢西坪產業文化協會為你做貼心的安排唷！【如欲安排前往建議事先電話聯繫確認】","TrafficGuidelines":"開車：南下：1.從國道一號苗栗交流道下者，左轉台6省道，經公館汶水大湖接台3省道，往南下經大湖直抵壢西坪。2.從國道一號三義交流道下者，左轉台13省道，再左轉52縣道，經鯉魚潭水庫後，接台3省道亦可到達。北上：1.過國道一號豐原交流道後，接國道4號高速公路，往東勢的方向，至出口左轉接台三省道，往卓蘭方向，就可直抵壢西坪。","Add":"苗栗縣卓蘭鎮豐田里6-1號","OpenHours":"","City":"苗栗縣","Town":"卓蘭鎮","Coordinate":"24.2642866,120.7839103","Py":24.3263091,"Px":120.82405130000006,"Picture1":""},{"Name":"金葉山莊休閒農場","Tel":"04-25892292","Toldescribe":"金葉山莊位於卓蘭鎮壢西坪的入口，也是台三號省道147.5公里處旁，園區內種滿的樟樹是山莊的最大資產，而特地去考取解說員資格的主人女兒，更可以詳盡的為遊客解說並帶大家認識各種植物生態。來到金葉山莊絕不能錯過女主人的好手藝，特有的「客家封肉」和「生龍活虎湯」別處吃不到，兼顧美味和養生的風味料理，讓大家齒頰留香，吃了還想再吃；女主人還會不時的研發新菜色和新口味，讓大家不同時間來都能品嚐到好味道。山莊內的泉水泳池也是特有的活動景點，因為引用山泉水而終年不缺水，且流動的泉水也讓泳池永遠乾淨，是夏天消暑的好去處。此外園區還有設計各種手工藝DIY活動，並集合各地的陶藝作品、擺飾精品，來到這裡的遊客可細細挑選和賞玩。天然木屋房間內的陳設簡單而優雅，屋內屋外與自然相融合。木屋周圍群樹環抱，清新的森林浴住宿，讓大家隨時隨地都可以與大自然的約會，享受芬多精。來到這裡可搭配附近景點的休閒農場和觀光果園做遊程規劃，亦可參加山莊本身設計的一日遊或二日遊套裝行程，搭配時令會有不同的優惠活動可以參加，能讓到此想放鬆身心的人盡情享受，擺脫城市喧擾。【如欲安排前往建議事先電話聯繫確認】","TrafficGuidelines":"開車1.國道一號苗栗交流道下-左轉台6省道-經公館、汶水-接台3省道往南147.5公里處即可抵達。2.國道一號三義交流道下-左轉台13省道-左轉接苗52縣道-經鯉魚潭水庫後-接台3線省道往南147.5公里處即可抵達。3.國道一號豐原交流道-往東勢方向下交流道-接豐勢路經石岡、東勢台3線進入卓蘭鎮-往西坪147.5公里處即可抵達。","Add":"苗栗縣卓蘭鎮豐田里185號","OpenHours":"進房15:00 早上10:00","City":"苗栗縣","Town":"卓蘭鎮","Coordinate":"24.3334537,120.78666759999999","Py":24.3289359,"Px":120.8211437,"Picture1":""},{"Name":"花露花卉休閒農場","Tel":"04-25891589;04-25893280","Toldescribe":"花露休閒農場內有香草能量花園及花香精油博物，是一座能提供遊客釋放壓力的花園，農場藉著花香感受無形的能量，運用各種香草植物的芳香，巧妙設計搭配造景，讓您置身其中，有如投向大自然懷抱，達到心靈療癒之效，也是新人拍婚紗照的最佳地點。園區亦提供專人解說，引導您走入能量的芳香世界，區內還有製作純精油及製作最天然乳液的DIY活動。來到花露，當然還有不可錯過的花香美食餐飲，園區所栽培的香草植物及芳香玫瑰花，都能成為桌上佳餚。民眾還可以提著竹籃到園區內採擷花草，泡一壺花草茶，再覓一處幽靜地力享受下午茶美好時光；這裡也提供婚宴場地，菜色亦是以香草入菜。農場的「仙人掌區」種植了各式的耐旱植物，最有名的莫過於仙人掌，植株色彩多樣、方便好照顧，民眾到此參觀總會帶幾盆回家養；「花卉區」內有麗格海棠、仙客來、蘭花，從每盆十元的香草植物系列到高價位的松柏均有，都有正式販售，還提供您設計盆景與插花等服務。另外，在農場裡有座全台唯一的精油博物。由於40年代生活困苦，苗栗老一輩客家人靠著提煉香茅油、樟腦油來養家活口，所粗製的香茅油、樟腦油經轉賣給化工廠後，再粹取裡頭主要成分賣至日本及歐洲各國，為台灣賺取不少的外匯。如今這項產業沒落了，留下的僅只是這一段克勤克儉的客家本色記憶，為了把這段歷史紀錄下來，園區蒐集了罕見的精油製作器具，放置在花露精油博物裡，希望藉著文物展示延伸歷史，讓後代子孫來追思，邀您一同走入時光邃道，感受一下花露為您呈現的精油博物魅力。【如欲安排前往建議事先電話聯繫確認】","TrafficGuidelines":"開車1.國道一號苗栗交流道下，走台3線經公館、大湖、再到卓蘭，於金葉山莊入口處左轉上西坪里，尋線可達。2.北上者，國道四號下豐原交流道經豐原區、石岡、石城、再到卓蘭。到卓蘭走台3線右轉往西坪里上山可達。3.國道四號豐原交流道下→石岡東勢→卓蘭→台3線146.5公里處右彎上山5分鐘。","Add":"苗栗縣卓蘭鎮西坪里西坪43-3號","OpenHours":"08:00~18:00（全年無休）","City":"苗栗縣","Town":"卓蘭鎮","Coordinate":"24.3334537,120.78666759999999","Py":24.332778,"Px":120.82616889999997,"Picture1":""},{"Name":"南江休閒農業區","Tel":"03-7821736、0928-331930","Toldescribe":"南江休閒農業區的範圍呈現狹長型，東起為東河之東江橋，西至南河之長崎下，園區面積約為292公頃，區域的範圍總共包括了上坪、下坪、伯公廟、里金館、馬果坪、福南等聚落與小東河流域等地區，是座頗具規模的休閒農業區。位居南庄地區的南江休閒農業區，可說是全國最成功的休閒農業區之一，目前已列入全國的示範園區，更帶動各地的休閒農業園區發展。南江休閒農業區最具代表性的農產品為鱒魚，過去這裡曾是鱒魚生產的最大中心點，隨著休閒產業的興起，逐漸將僅有餐廳的鱒魚店轉型為休閒農場，讓來訪的旅人不只能享用新鮮的鱒魚料理，還希望遊客能在此處停留更長的時間，甚至前往鱒魚養殖中心探訪。此外，南江休閒農業區內的農場皆建設完善，且許多地方都有清澈溪水，更提供露營場地，這也是形成都市人喜愛此地的原因。另外，緊鄰熱鬧南庄老街的優點，讓南江休閒農業區紛紛建造鄉村民宿、客家民宿等，讓旅人可同時悠遊老街，還能品味南江休閒農業區的大自然風情。此區交通相當便利，路段建設完善，是周休二日的最佳休憩地點。【如欲安排前往建議事先電話聯繫確認】","TrafficGuidelines":"開車：1.沿著西濱公路，從竹南往頭份至三灣，再接苗124甲線，即可到達。2.從國道一號頭份交流道下行，進入三灣後沿著苗124甲線行駛至南庄，即可抵達。3.從國道三號竹東交流道下行，沿台3線往北埔方向，接入苗124甲線至南庄，即可到達。","Add":"苗栗縣南庄鄉南江村小東河14鄰8號-3","OpenHours":"","City":"苗栗縣","Town":"南庄鄉","Coordinate":"24.3988475,120.79820289999998","Py":24.5722408,"Px":120.99910320000004,"Picture1":""},{"Name":"杉林松境休閒農場","Tel":"037-824578;0910-824578","Toldescribe":"每年到了5月份左右，都會出現大量的旅客人潮，目地就是觀賞苗栗山區的白色油桐碎花；但杉林松境休閒農場則是一年四季都有美景與花海，有山櫻、八重櫻、太平櫻，還有苗栗原有的五月雪白色油洞花之外，更有數不盡的杉林樹木、松木，以及令人感到幸福的銀杏樹、浪漫的櫻花樹，無論哪個季節來到這裡，都不會覺得孤單無趣。喜歡享受山林芬多精的旅人，絕對不能錯過位於餐廳後側的山林小徑、休閒步道，寬闊易行的步道，已足以讓一台小客車順利通過，但為了避免污染山林環境，旅人必須靠自己的力量走上林道之中。隨著爬升的海拔度愈高，將有機會遇見更多的櫻花樹、銀杏樹。另外，四、五月時還可看到螢火蟲飛舞哦！此外，農場主人喜愛竹藝，遊客來此也可欣賞主人製作的竹藝製品。【如欲安排前往建議事先電話聯繫確認】","TrafficGuidelines":"開車由國道1號頭份交流道下，往三灣方向行駛；接著循指標往南庄方向前行，經過南庄大橋後再左轉往五指山前行，約行駛20分鐘後可抵達。","Add":"苗栗縣南庄鄉東河村橫屏背26號","OpenHours":"10:00~18:30，不定期休假","City":"苗栗縣","Town":"南庄鄉","Coordinate":"24.5618094,121.0449768","Py":24.6150836,"Px":121.04124490000004,"Picture1":""},{"Name":"桂花園休閒農場","Tel":"037-823066、037-823989","Toldescribe":"喜歡客家菜的遊客一定知道，客家食物最大的特色就在於極酸與極鹹，因為這種菜色，有助開胃且能補足流汗所需的鹽分，也因此，客家人大多喜歡醃製菜乾或醬菜，而這種做法也能讓食物保存得更久。可別以為客家食物僅有如此，桂花園的客家美食除秉持客家菜傳統的四炆四炒料理方式外，還研發出獨特的桂花料理，更有鱘龍魚餐及鱒魚大餐等各種多元化菜色供選擇。桂花園總共可分為3座餐館，其中最熱鬧的就是以客家小菜及合菜為主的古建築式餐廳，另外還有冰品飲料區，以及白色歐式建築的優雅下午茶區等，現在還新增了可容納百人的檜木會議室，可供公司團體開會、休閒之用。來到桂花園裡，絕對要仔細欣賞這座以一條龍式的客家建築，傳統各家設計方式，成為現代人追尋古憶的地方，尤其站在桂花園的歐式露天咖啡區裡，更能清楚發現其中之美。而在咖啡區的下方，還有農業及客家商店街、古早童玩等多元化的休閒主題，相信每位來過這裡的旅人，都可留下難忘的回憶。【如欲安排前往建議事先電話聯繫確認】","TrafficGuidelines":"開車1.沿著西濱公路，從竹南往頭份至三灣，再接苗124甲線，進入南庄後並過南庄大橋，即達到達。2.從國道1號頭份交流道下行，進入三灣後沿著苗124甲線行駛至南庄，經過南庄大橋後，即達到達。3.從國道3號竹東交流道下行，沿著台3線往北埔方向，接入苗124甲線至南庄，行經南庄大橋後，即達到達。","Add":"苗栗縣南庄鄉南江村5鄰73之7號(南庄大橋旁)","OpenHours":"09:00-19:30(每週二公休)","City":"苗栗縣","Town":"南庄鄉","Coordinate":"25.1023874,121.60712020000005","Py":24.5950989,"Px":121.00160299999993,"Picture1":""},{"Name":"福興南和休閒農業區","Tel":"0953-170045","Toldescribe":"通霄鎮福興南和休閒農業區位於通霄鎮與三義市區之間，此區的東西向交通為苗121縣道所串聯，其東邊可接國道一號三義交流道，西側則是國道三號通霄交流道，算是交通便利的一處休閒農業區。在福興南和休閒農業區裡幾乎都是牧場休閒中心，而且每年的產量相當高，甚至是知名品牌的重要來源之一；雖然在南和休閒農業區範圍裡的牧場已轉型觀光化，但為避免乳牛因人潮而受到驚嚇，目前此區的休閒農場大多仍以預約制為主。來訪福興南和休閒農業區的旅人，除了享受這裡的牧場風情之外，也別錯過由新鮮牛奶製造而成的肥皂、饅頭等伴手禮。來到福興南和休閒農業區還有一處知名的景點必須親自體驗，充滿藝術氣息的陶藝中心，也設在這座農業區的範圍裡，其中還有獨具傳統文化的燒窯處，讓旅人可以飽覽陶藝品及燒窯知識。相信在這樣悠閒且舒適的環境裡，旅人也可創造出獨具風格的陶藝作品。【如欲安排前往建議事先電話聯繫確認】","TrafficGuidelines":"開車：1.從國道一號三義下交流道下行，接苗130縣道往通霄方向，到達苗121縣道路，依指標指示即可到達。2.由西濱或國道三號通霄交流道下行，沿台1線之通霄外環道，至通霄隧道口前方紅路燈路口，右轉南和路往飛牛牧場方向，依指標指示即可到達。","Add":"苗栗縣通霄鎮南和里166號","OpenHours":"","City":"苗栗縣","Town":"通霄鎮","Coordinate":"24.6988101,121.0711086","Py":24.4422344,"Px":120.7406413,"Picture1":""},{"Name":"飛牛牧場休閒農場","Tel":"037-782999","Toldescribe":"飛牛牧場是一處結合「生活、生態、生產」三體為理念的休閒牧場，讓生活在喧嚷緊張的都市人，有一處放鬆心情、 體驗另一種生活方式的地方。飛牛牧場的前身是「中部青年酪農村」，由三位青年吳敦瑤、施尚斌、李穎耀創業經營。牧場占地寬廣，規劃的生態區又區分為乳牛生態區、綿羊生態區、蝴蝶生態區、水域生態區和可愛動物區。生產區則又有乳牛牛乳之乳製品，有機園區種植花草及有機蔬菜區(國際美育自然生態基金會有機檢驗通過)，及園區自產之牲畜產品和牧草種植區。另外餐飲服務、住宿、會議室、提供烤肉、露營等設施面面俱到。在「飛牛牧場」可以讓遊客有多重休閒選擇，在這裡有學生團體的生態體驗，讓學生看到課本上的實物，並與大自然交融。全家親子郊遊，有草原區讓您野 餐，小朋友在草原上奔跑嬉戲，體驗農場生活，增進親子關係。公司團體的會議，讓處於煩忙都市生活，有放鬆心情、再次衝刺的活力。漫步於寬闊的牧場，看著牛隻悠閒的吃草，欣賞野鴨在池裡悠然的划水，草地上小朋友放風箏，讓自己融入大自然中真是種享受。這裡廣大的牧場風情是婚紗攝影最佳地點，如果想要宴請賓客，牧場亦提供有喜宴場地，相關的費用及細節可電話洽詢。【如欲安排前往建議事先電話聯繫確認】","TrafficGuidelines":"開車台1線往通霄方向走苗121線即可看到飛牛牧場的大招牌指示。 大眾運輸可於苗栗通宵站下車，若轉乘計程車約10多分鐘路程。","Add":"苗栗縣通霄鎮南和里166號","OpenHours":"07:00~22:00； 進房15:00、退房11:00","City":"苗栗縣","Town":"通霄鎮","Coordinate":"24.3804378,120.83266630000003","Py":24.4422344,"Px":120.7406413,"Picture1":""},{"Name":"火炭谷休閒農場","Tel":"037-543945","Toldescribe":"火炭谷休閒農場是一個以木炭為主題的休閒農場，於93年通過審核成為苗栗縣內第一家申請合法的體驗型休閒農場。隨後結合谷巴休閒渡假村內的軟硬體設施等成為更完備及更具競爭力的休閒農場。農場內除了必備的軟硬體設施之外，仍保留了許多天然未受破壞的自然生態環境。如百年玉蘭花樹、古厝、老豬舍等。你可以想像這裡的Morning call是鳥聲嗎？鳥兒穿梭於林梢，蝴蝶們翩翩起舞於花叢間，還有不經意穿梭於枝椏間的松鼠，或是突然出現在眼前或腳下的石龍子、攀蜥、鍬形蟲等，處處都有驚喜。園區占地十公頃，提供住宿、會議、咖啡餐飲、炭泉SPA館、親子DIY、室內攀岩、迷彩叢林漆彈場等多功能及教育意義的休閒體驗。另外農場也為旅客精心設計了一系列的活動如震撼型的迷彩漆彈叢林戰、蜘蛛人室內攀岩、庭園風味烤肉、施放祈福天燈、各類型晚會及團康活動、各式親子創意DIY活動、養生客家擂茶及客家麻薯DIY等，及生態文化的導覽解說服務如紅樹林生態、木炭窯文化等，相當適合全家大小來此度過快樂假期。【如欲安排前往建議事先電話聯繫確認】","TrafficGuidelines":"開車頭份交流道下往南尖山，台13甲往造橋，在造橋車站前300公尺處左轉便可抵達谷巴休閒渡假村（行車時間約15分鐘）","Add":"苗栗縣造橋鄉造橋村錦成東路8-6號","OpenHours":"平日8:00~20:00、假日8:00~22:00； 進房16:00、退房11:00","City":"苗栗縣","Town":"造橋鄉","Coordinate":"24.3849628,120.8278490","Py":24.6356209,"Px":120.87590569999998,"Picture1":""},{"Name":"石中臼休閒農場","Tel":"037-541038,037-543388","Toldescribe":"喜歡寧靜及閒逸生活的旅人，可千萬別錯過位於苗栗造橋鄉的石中臼休閒農場。寧靜高雅的石中臼，不僅是品嚐美味客家料理及精緻鍋品的好地方，更是休憩談心的最佳場所，而廣大的草地，更讓來訪的旅人可盡情嬉戲、玩耍。占地約3公頃的石中臼休閒農場，不僅擁有怡人的山色景觀，還是受到苗栗縣政府肯定的西式風味餐廳，是個相當難得的好地方。在石中臼各式美味料理當中，以石中臼鍋品及客家風味餐最受大家歡迎。以天然蔬果熬煮而成的石中臼鍋品，擁有最自然的鮮味及甜味，滿足每位挑嘴的饕客，即便平常不喜歡蕃茄及蔬菜味的朋友，也會深深喜歡這兒的美味鍋品，讓每位旅人都可吃得愉快、健康。道地的客家風味餐，竟有著與西式料理相同的前餐及湯品，十分精緻，而客家主菜的梅干扣肉，更是每位旅客必點的人氣餐品。獨特的客家烹調方式，讓原本應該會變得焦黑的肉質，呈現出美味的深紅色，相較於一般的梅干扣肉來說，石中臼的客家梅干扣肉更鬆軟，也少了油膩感，美味得讓人上癮。餐後乘坐在涼亭或遮陽傘下，來杯冰涼的咖啡飲品及甜點，一邊享受美食的味道，一面感受大自然的芬多精及湖面傳來的鴛鴦戲水聲，偶爾還能見到蝴蝶與小昆蟲的身影，十分愜意。隨著四季的變化，庭園花草樹木會呈現不同的風情景色，多樣的變化，在在感受到大自然之美，讓來訪的旅人可輕鬆、愉快的享受每一刻。【如欲安排前往建議事先電話聯繫確認】","TrafficGuidelines":"開車1.北上國道一號從132公里處的苗栗交流道下行，接台72號東西向快速道路向西行，頭屋出口下右轉接尖豐路（台13線）往北行，經過明德水庫可看到指示標誌「石中臼香草庭園」，循指標右轉進入山區，行駛10分鐘即可到達。2.南下國道一號從110公里處的頭份交流道下行，往苗栗方向接尖豐路（台13線）往南行，到大坪可看到指示標誌「石中臼香草庭園」，循指標右轉進入山區，行駛10分鐘即可到達。3.國道三號從122公里處的後龍收費站，接台72號東西向快速道路向東行，頭屋出口下左轉接尖豐路（台13線）往北行，經過明德水庫可看到指示標誌「石中臼香草庭園」，循指標右轉進入山區，行駛10分鐘即可到達。","Add":"苗栗縣造橋鄉大龍村石樁臼6-8號","OpenHours":"10:30~17:00，每周一公休","City":"苗栗縣","Town":"造橋鄉","Coordinate":"23.3165746,121.45421050000004","Py":24.612242,"Px":120.90222930000004,"Picture1":""},{"Name":"貓頭鷹生態教育園區休閒農場","Tel":"037-931323","Toldescribe":"2003年3月，苗栗縣獅潭鄉有一群愛好貓頭鷹的地方人士，為貓頭鷹愛好者成立一個共同的家：咕咕嚕博士貓頭鷹之家！經過十餘年努力，維護農場內大自然與野生動物和平共處，將遊憩活動對自然環境的衝擊降到最低，實現「無痕山林運動」之理念。這裡除了收容受傷殘的貓頭鷹之外，備有戶外生態教室，透過生態教育方式，介紹貓頭鷹的型態、特徵和習性，讓更多人能建立「關愛貓頭鷹，愛護大自然」的保育觀念。咕咕嚕博士貓頭鷹之家備有多媒體視聽教室、露營場地，及頗具規模的貓頭鷹戶外生態園區，提供完整的生態教學與導覽，並由專人指導鄉土再生紙製作教學，用園區內的植物做一張張有味道的紙，蓋上貓頭鷹的圖案，並設計多款的貓頭鷹素胚彩繪，藉由生態美學、環保教育，讓小朋友對大自然懂得珍惜與愛護。「咕咕嚕博士貓頭鷹之家」附設貓頭鷹生態休閒農場取得農委會「休閒農場許可登記證」，為全國第238家合法立案之休閒農場。","TrafficGuidelines":"台三線113.5公里，義民廟對面","Add":"苗栗縣獅潭鄉新店村61號","OpenHours":"","City":"苗栗縣","Town":"獅潭鄉","Coordinate":"24.647279,120.92997100000002","Py":24.5418755,"Px":120.92171659999997,"Picture1":""},{"Name":"十份崠休閒農場","Tel":"037-995149","Toldescribe":"位於關刀山稜線上的十分崠休閒農場，有著相當美麗的山色景觀，當天氣晴朗時，從農場內就可遠眺苗栗市區的全景；每當下午雲霧攀越山稜線時，更有壯麗的雲海景色。這些純大自然的天氣變化，就足以讓旅人大開眼界了。十份崠休閒農場是一處放鬆心情的好地方，在這裡可以仰望大自然的雲海變化、翠綠山色的模樣，還有滿山滿谷的果園等旅人前來採收；除此之外，這裡也是五月雪油桐花的賞景地點之一，可說已經結合山林的所有美景。在十份崠休閒農場的前方，還有一座已被列為三級古蹟的十份崠涼亭，由於此處正好位於山路的交叉口，傳說中，於百年前有路過此處的商人，都會在此休憩、喝杯茶水再離開。今天雖然已經擁有方便的交通工具，但喜歡大自然與熱愛登山的旅人，一定都會喜歡上這裡的山色景觀。農場裡也種有果樹，端午節前後有李子、十月的甜柿及十一、十二月的柑橘，只要去對時間，都能滿載而歸。【如欲安排前往建議事先電話聯繫確認】","TrafficGuidelines":"開車由國道一號苗栗（公館）交流道下行，往苗栗方向前行約600公尺，經龜山橋後左轉進入台72線快速道路(往大湖、泰安、汶水方向)；行駛至台72線快速道路終點後，從汶水地區右轉進入台3線，經過汶水橋（於台3線約128公里處)再往大湖及卓蘭方向行駛。到達台3線約132公里處時，右轉進入苗60線3.5公里處，即可抵達。","Add":"苗栗縣銅鑼鄉新隆村219號","OpenHours":"09:00~18:00，09:-2200(要事先預約)","City":"苗栗縣","Town":"銅鑼鄉","Coordinate":"24.3804378,120.83266630000003","Py":24.4150489,"Px":120.82117960000005,"Picture1":""}]