[{"Name":"大丘園休閒農場","Tel":"04-8792929","Toldescribe":"園長劉炳賀先生是擔任二水鄉第四班蔬菜產銷班的班長，在八卦山二水鄉大園山區有畂1.5公頃種植蔬果的土地，有鑒於加入WTO後，農業應轉型為服務業，才能創造農業新氣象。於是向彰化縣政府申請獲准將蔬菜及果園開發成休閒農場，經過許久精心規劃而建造出大丘園休閒農場，並推出「十菜二湯」的風味餐。園長還是吉園圃的成員，所以他種植的蔬果都是無農藥殘留的喲！例如：小黃瓜、南瓜，草莓以及各種蔬菜，最具有健康概念。 還可遠望彰化十景之一的鄭氏古厝、親水公園、「台灣百景」八堡圳取水口制排水門、「台灣大禹」林先生廟導水傳奇、八堡一、二圳水門到二水國中，若有團體預定，還可商請園主充當二水歷史的解說先生，讓大家更暸解彰化母親河─八堡圳水源的來龍去脈。「野菜風味餐」可謂之一絕，是以「鬼針草」研發烹製各種美味菜餚，因為「鬼針草」花謝後針狀物常會附著衣褲，所以人見人厭的一種野草，園長卻嘗試取其嫩葉煮食，加上小魚乾等配料，煮湯或炒肉絲，味甘微苦，別具風味。【如欲安排前往建議事先電話聯繫確認】","TrafficGuidelines":"開車國道三號下名間交流道往二水鄉方向→接彰南路(台3)→右轉南雅路(台3)右轉員集路(縣152)→右轉大圓路直達大丘園休閒農場","Add":"彰化縣二水鄉大園村員集路2段442號","OpenHours":"08:00~19:00，需三天前以電話預約","City":"彰化縣","Town":"二水鄉","Coordinate":"23.8013454,120.63971059999994","Py":23.8013454,"Px":120.63971059999994,"Picture1":""},{"Name":"東螺溪休閒農場","Tel":"04-8659206","Toldescribe":"占地三公頃的東螺溪休閒農場，位於埔鹽、芳苑、福興及二林等地的交界處，園內不僅有卅、四十年前的柑仔店，用爐灶烹煮食物的老式廚房，還有做粿的石磨等農具及稻草搭蓋的農舍，連泡茶的爐火也是用木炭燃燒而成，整個園區猶如卅、四十年的農村景象。為了保留以往農村的風情，本農場主體是以舊鴨舍改建，裝飾簡單樸素，並在屋前魚池飼養活動力特強的大頭鰱，整個景觀讓您可以很舒服的在此用餐、休息，農場並準備有竹筒炮讓遊客們試一試炮的威力。在地主及社區居民的協助下，原本荒煙蔓草的荒廢地如今已成為農村特色的休閒農場，加上縣府已在舊濁水溪進行整治工程，並在沿岸興建一條卅多公里長的自行車道，成為彰化縣觀光休閒農園的重鎮。因農場位於埔鹽鄉的交界，離埔鹽環鄉自行車道非常近，遊客可騎著自行車，沿著自行車道邊騎邊欣賞舊濁水溪的河岸及田野風光，好不愜意。東螺溪休閒農場利用農村田園景觀、自然生態環境資源，以休閒農業之經營方式，結合農村生活文化，提供富有經濟性、社會性、教育性、醫療性等功能的環境，讓遊客在農村體驗中，獲得舒適、愉快及滿足的田園樂趣。DIY活動有小風車、彩繪葫蘆、稻草人娃娃、陶藝、芋頭粿DIY等，著重於農事體驗，均受小朋友的喜愛。【如欲安排前往建議事先電話聯繫確認】","TrafficGuidelines":"開車1.國道一號：員林交流道下→員鹿路→溪湖方向→接二溪路往二林方向→溪湖橋（約6.4公里處）→右轉沿舊濁水溪（東螺溪）直行6.3公里，約20分鐘即抵。2.台17線：南下44公里處→左轉沿溪畔3公里到達北上44公里處→右轉沿溪畔直行約3公里即抵。","Add":"彰化縣二林鎮二溪路七段2巷1201號","OpenHours":"8:00~17:00，入園請先預約","City":"彰化縣","Town":"二林鎮","Coordinate":"24.007907,120.53872899999999","Py":23.9564661,"Px":120.44849120000003,"Picture1":""},{"Name":"奈米休閒農場","Tel":"04-8539810,0919-327075","Toldescribe":"奈米休閒農場位於彰化縣大村鄉南勢村南二橫巷內，在主人黃錫瑋的規劃下，奈農場結合生活、生產與生態，來到這裡不僅可以在廣達二、三公頃葡萄果園內採果，農場還設有荷花池、庭園咖啡區，提供葡萄雞風味餐、點心、下午茶，並接受機關團體預約鐵板烤肉、生態導覽，小朋友來此還可以動手彩繪立體陶藝。農場內所種植的葡萄採「套袋管理」、「草生栽培」、「農藥用量安全」等天然栽培，有農委會「吉園圃」認證，成熟葡萄甜度均在二十度以上。農場內三個區塊葡萄園中，主人特別整理其中一區塊作為溫室栽培，並利用夜照燈光技術控制溫度以調整產季，減少農藥使用量，提高葡萄品質；每年三、四月溫室葡萄成熟時，藉由燈光效果，葡萄園內串串黑得發紫的葡萄美景，令人陶醉。農場的下午茶點心源自宜蘭的九層粿，採用農場果園高級葡萄汁製作，吃來香、Q、軟，甜鹹層次分明，非常好吃；風味餐各式蔬菜來源則都取自農場自種的蔬菜。此外，農場在農委會輔導下，採用果園生產的巨峰葡萄，製作出原汁原味，不加一滴水與化學添加物的瓶裝葡萄汁，是來農場旅遊的最佳伴手禮。來到奈米休閒農場採果、用餐、喝喝下午茶，都會令您有個愉快滿足的田園之旅。【如欲安排前往建議事先電話聯繫確認】","TrafficGuidelines":"開車請走國道一號，在埔鹽系統交流道轉76快速道路往南投方向行，於埔心大村交流道下快速道路，轉接大溪路146縣道往大村方向，在大溪路146縣道6.9公里處及8.3公里處均可接南二橫巷，於南二橫巷8號可見奈米休閒園區招牌即可抵達。","Add":"彰化縣大村鄉南勢村南二橫巷8號","OpenHours":"週一至週四9:00~21:00；週五、六、日9:00~22:00； 葡萄夏果6月~9月、冬果11月~2月； 高品質溫室葡萄清明節過後3月~6月； 葡萄採果、石板烤肉、甕窯烤肉請事先預約","City":"彰化縣","Town":"大村鄉","Coordinate":"23.9835999,120.543","Py":23.9835999,"Px":120.543,"Picture1":""},{"Name":"劍門生態花果園休閒農場","Tel":"04-8522318","Toldescribe":"位於大村鄉茄東村的劍門生態花果園，是從1923年即開始從事專業柑桔生產的果園。現在已經家傳四代，目前由61歲的賴柏培及34歲的兒子賴仲由專業經營。1960年代，中部員林地區盛名遠播東南亞的柑桔及柳丁，在黃龍病的肆虐下，幾乎將盡絕跡。這裡是目前碩果僅存的一個地方，它不但保有傳統的美味特色外更有優雅的環境及生動的生態面。園區內不但擁有十多種的柑桔種類之外，更擁有豐富的鳥類生態、蝴蝶生態及青蛙泥鰍園區。不但擁有安全的學習空間，更能夠讓小朋友親近觀察專業芸香科柑桔類的成長過程及用先乃栽培的柑桔，並體驗自然生態的樂趣，為一處擁有專業性、歷史性及教育性的農場。這裡的柑柑種類多，想要體驗採果樂趣，可在十一月中旬過後前往。看著園內一株柑橘樹，上面結滿著各式不同的水果，除柑桔外，竟然還出現檸檬？！這樣柑橘嫁接的技術，除讓主人榮獲神農獎的殊榮外，小朋友聲呼聲連連的讚嘆，才是主人最滿意的地方。另外在鳥類世界的尋奇部分，園區可見綠繡眼、白頭翁，和褐頭鷦鷹飛來築巢，除可藉機認識他們以外，追蹤鳥類生態也是一項小朋友校外教學的活教材。整個園區就像一本大書，值得您攜家帶眷來翻閱。【如欲安排前往建議事先電話聯繫確認】","TrafficGuidelines":"開車沿台1線走至中山路，由彰化往員林方向進入大村鄉至中正西路右轉，沿著標誌前進即抵。","Add":"彰化縣大村鄉茄東路2段141巷20號","OpenHours":"假日及平時採全天開放，團體需預約參觀","City":"彰化縣","Town":"大村鄉","Coordinate":"24.007907,120.53872899999999","Py":24.007907,"Px":120.53872899999999,"Picture1":""},{"Name":"台大休閒農場","Tel":"04-8527335","Toldescribe":"台大觀光蘭園成立於1981年，位於彰化縣大村鄉省道1號線旁，堪稱台灣最大的觀光蘭園，國內外共有約9公頃栽培面積，並於1996年擴展到美國，設有約3公頃的蘭花栽培場。園內主要精經營萬代蘭、千代蘭、蝴蝶蘭、文心蘭、虎頭蘭、拖鞋蘭、嘉德利亞蘭及其他屬別蘭花之育種、研發、生產，並將蘭花銷售到全台灣和世界各地。 從育種選拔、無塵室組織培養、溫室栽培、病蟲害防治、病毒檢測，台大蘭園在蘭花培育上，均採企業化管理，生產高品質的蘭花，並且不斷投入人員和經費，自行研發、引種、交配、選種、再配合自設病毒測定站的病毒檢查。不斷推陳出新優良品種，以供應各界需要。產品還遠銷日本、美國、歐洲、東南亞等世界各國及代工種植。內銷方面則以禮花為主，採「全省送達」方式，深獲好評。台大蘭園配合各種團體需求，團體導覽以一部遊覽車1600元，20人以上DIY每名150-250元，須提前預定，種好之後可帶回家。【如欲安排前往建議事先電話聯繫確認】","TrafficGuidelines":"開車國道一號彰化交流道中央陸橋右轉，接中山路往員林方向行駛，到達大村鄉即可看見指標。若是走東西向的民眾，可至員林交流道下接中山路，往花壇方向行駛，到達大村鄉即可看見指標。","Add":"彰化縣大村鄉大橋村中山路三段137號","OpenHours":"08:00~17:30","City":"彰化縣","Town":"大村鄉","Coordinate":"23.9968785,120.55870900000002","Py":23.9968785,"Px":120.55870900000002,"Picture1":""},{"Name":"雅育休閒農場","Tel":"0972-318698,0937-680691","Toldescribe":"雅育休閒農場位於彰化縣大村鄉貢旗村，位處行政院農委會台中區農業改良場附近，農場周邊多是葡萄園及稻田景觀，景色非常優美。園區建築採德式鄉村風格造型，配合週遭景觀，讓您不用出國同樣能享受歐洲風情。農場本身以巨峰葡萄生產為主要農業經營活動，園區內主要生產鮮食品種巨峰葡萄為主，兼種少數蜜紅葡萄，每年六~七月及十二~一月為葡萄生產期，適合親子採果體驗活動。以完全不同於國內之垣籬式栽培方式，讓您親手剪枝、誘引、除芽、採收等葡萄園生產管理，提供釀酒教學體驗，讓對葡萄酒有興趣的民眾一個不同的田間管理經驗。目前農場規劃的活動內容有「當葡萄遇上葡萄酒」及「葡實生活」活動二種。「當葡萄遇上葡萄酒」，是結合葡萄酒品評及果園管理工作體驗，將品酒活動帶到果園生產面，讓遊客實際體驗動手垣籬式釀酒葡萄的管理工作，增加品酒活動的深度與內涵，適合八人以上團體預約活動。「葡實生活」則是以戶外教學活動為主，讓學童們透過實地參訪及有趣的故事性描述，了解在地產業的歷史文化。農場所生產的巨峰葡萄顏色紫黑、果粒大、糖度高、香氣濃郁，為極優秀之鮮食品種；蜜紅葡萄則果色鮮紅，具有獨特蜂蜜與哈密瓜香氣，曾經得過95年及96年葡萄策略聯盟全國第二名及第三名，通過農委會農產品產銷履歷（GAP）驗證，提供給客人最大的安全保障。農場亦提供大村鄉唯一的接待家庭住宿服務「葡萄宿Gasthof Vitis」，備有雅致歐風客房三間，可容納十六人住宿。寬闊的空間，簡潔的歐式家俱擺設，庭園以及週邊田園景觀開闊的視野，有別於旅館式的民宿經營，讓您真實體驗農村生產與生活的面貌。【如欲安排前往建議事先電話聯繫確認】","TrafficGuidelines":"開車1.國道一號207公里埔鹽系統轉台76往東(員林/草屯)方向，下埔心/大村交流道回轉往大村方向，第一個紅綠燈右轉五通西路接大溪路(縣道146)右轉，過五通宮牌樓200尺處左轉約800尺即達雅育休閒農場。2.國道三號中興系統接台76過八卦山隧道，下埔心/大村交流道直行往大村方向，第一個紅綠燈右轉五通西路接大溪路(縣道146)右轉，過五通宮牌樓200公尺處左轉約800公尺即達雅育休閒農場。","Add":"彰化縣大村鄉貢旗村旗興路二段328號","OpenHours":"採預約制 8:00-18:00","City":"彰化縣","Town":"大村鄉","Coordinate":"24.007907,120.53872899999999","Py":23.9850925,"Px":120.53562009999996,"Picture1":""},{"Name":"菁芩休閒農場","Tel":"04-8752376,0958-893396","Toldescribe":"樹頭上掛著滿滿的芭樂，微風吹來，樹葉的沙沙輕響，伴著那股清甜的芭樂香，著實令人難忘。菁芩休閒農場是鄭俊達夫妻打造的芭樂天地，園區內徹底融合兩人的特色，主人鄭俊達從農前是充滿藝術氣息的婚紗攝影行家，他在園區內種植珍珠、帝王、香水、紅心、紫芋、水晶、中山月拔、蜜香、梨仔等九種芭樂，還搭建有涼亭及花圃，都是以藝術的角度巧妙安排。每棵芭樂樹整齊站好則是出自鄭太太的手筆，不說沒人會知道，滿口芭樂經的鄭太太先前可是雄糾糾氣昂昂的中尉軍官，正因融合兩人個性，園區看似規則卻也充滿變化。站在菁芩休閒農場的翠綠園區內，令人壓力全消，這裡的芭樂採用草生栽培，各式各樣的芭樂有的軟嫩、有的香脆，不同的香氣、口感，帶給味蕾豐富多變的感受，而每棵芭樂都是經過產銷履歷驗證，都是安全有保障，其中以水晶芭樂栽種最多，一口咬下，果肉香脆、質地細緻、清甜爽口又沒澀味，而且吃到最後一口都沒不會吃到芭樂籽，是夏天最好吃的品種。農場芭樂全年都有，並開放給民眾摘採，若是來電預約，還能現場製作甘草芭樂，鄭大哥採用的梅粉是以純梅肉製作，香氣十足又不膩口，讓人ㄧ吃上癮。菁芩休閒農場位在彰化縣田中鎮，民眾來到此處不妨親自體驗那股來自芭樂及鄭大哥夫婦的熱情魔力。【如欲安排前往建議事先電話聯繫確認】","TrafficGuidelines":"開車國道一號接76號東西向快速道路，右轉員集路，左轉福安路接興工路即達。","Add":"彰化縣田中鎮興工路509號","OpenHours":"電話預約(採果)","City":"彰化縣","Town":"田中鎮","Coordinate":"24.007907,120.53872899999999","Py":23.8566985,"Px":120.5912078,"Picture1":""},{"Name":"菁芳園休閒農場","Tel":"04-8223535","Toldescribe":"冬末初春花先知，田尾不只是田尾，這裡還有一座充滿綠意和芬芳味道的「菁芳園休閒農場」，落羽松並列兩旁，歡迎您的到來，在這裡，有一個充滿綠意的玻璃溫室green house，富含芬芳空氣的花園，生產出令人驚艷的美麗花朵，將讓喜好花卉的人心動滿意。喜愛美美花花草草的朋友，千萬別錯過了這個充滿歐洲風情的農場，落羽松隨著一年四季不同的氣候，產生不同的變化；農場裡還有展示區，教大家如何運用花草，佈置生活空間，您可以參考已完成的組合成品，選購想要的組合盆栽，如果您不方便運載的話，農場也有送花的服務喔！有美景當然也要有美食相伴啦，這裡供應香純的咖啡、花茶、蛋糕及鬆餅，坐在水池邊的座椅，邊喝咖啡邊欣賞戶外美麗的景致，真是一大享受呢！這裡也適合舉辦大型的會議；另外，如果您想要這邊住宿的話，農場前面還有一間美麗的「花宿」民宿，提供住宿。農場內有一株樹齡約有45年的大樟樹，樹幹上附生台灣原生種蝴蝶蘭，多樣而豐富的色塊顏色，每年在春節前後(2至4月間)，綻放著數千朵的白色小花，隨風搖曳煞是好看，365天綻放迎接貴客臨門，歡迎有空來走走喔！【如欲安排前往建議事先電話聯繫確認】","TrafficGuidelines":"開車省道台1線至田尾，再由公路花園北入口進入，直走至張厝巷右轉約一小段路即到達菁芳園休閒農場。","Add":"彰化縣田尾鄉打簾村張厝巷73-1號","OpenHours":"假日10:00~20:00 平日10:00~17:30","City":"彰化縣","Town":"田尾鄉","Coordinate":"24.007907,120.53872899999999","Py":23.9066,"Px":120.53399990000003,"Picture1":""},{"Name":"彰化花壇灣雅","Tel":"(04) 7266335 #2042 、(04) 7532642","Toldescribe":"位於花壇鄉的東北方及東南方，比鄰岩竹村虎山岩及灣雅村台灣民俗村出口處。附近與彰化八卦山風景區、銀行山、秀水鄉益源古厝、大村鄉葡萄觀光農園串聯而成一條景色秀麗、風光明媚的觀光動線，交通暢通，搭乘大型遊覽車就可抵達。這裡的氣候溫和而濕潤，四季陽光普照，四周山谷之間迴盪著徐徐的涼風，即使是悶熱的夏季，也十分的涼爽怡人。灣雅水土保持戶外教室面積約三公頃，土壤肥沃，為農地利用綜合規劃的觀光果園。芳香溫馨的果園內主要種植西施柚，每年農曆「寒露」至「霜降」期間，一顆顆又大又甜的西施柚垂掛在樹梢，吸弔為數不少的民眾前來採擷。西施柚屬於常綠果樹，果形碩大，肉質甘甜，含有豐富的維生素，有助於美容與消化。來到這裡，除了品嚐美味的西施柚外，還可在體驗果園生活之餘，順道認識平日不常接觸的水土保持常識，真可謂一舉數得。【如欲安排前往建議事先電話聯繫確認】","TrafficGuidelines":"","Add":"彰化縣花壇鄉灣雅村三芬路28之26號","OpenHours":"上午8:00-下午5:30","City":"彰化縣","Town":"花壇鄉","Coordinate":"24.017767,120.56563699999992","Py":24.017767,"Px":120.56563699999992,"Picture1":""},{"Name":"大山休閒農場","Tel":"04-7869703","Toldescribe":"大山休閒農場是一個以乳牛為主的牧場，位於八卦山脈、空氣好、水質佳、不受污染；場主於此養牛20幾年，因為WTO開放農牧產品進口衝擊，於是慢慢轉型成休閒農場，並生產製造牛乳附加產品對外販售。由於牧場位於山中，所以這裡的的乳牛可是喝山泉水長大的呢！生產出來的牛奶，純淨無污染，帶有濃濃的奶香及微甜的滋味，而且牧場以自己生產的優質牛奶，研發生產許多附屬產品，像是添加4種活菌的鮮奶優格及口感較Q的鮮奶麻糬等等。這裡的牧場主人除了免費導覽解說，還準備新鮮的牛奶給遊客品嚐外，每當假日下午3時，農場都會特別舉辦擠牛奶活動、餵小牛喝牛奶及喝牛奶比賽，這可真是吸引了一大票的大大小小的朋友，除了是免費參加之外，勝利的人還有獎品喔！到牧場玩累了，口渴有新鮮的牛奶可以喝；肚子餓了，牧場特別以10多種蔬菜、水果熬製的高湯所煮成的鮮奶火鍋及鮮奶咖哩鍋，另外還不定時生產時令蔬菜，因此來到這裡還可享用美味的餐飲，而且還附甜點唷！回家前，別忘了順手採買一些這裡推出的特色產品，有杏仁牛奶、抹茶及咖啡口味的牛軋糖，還有新產品鮮奶酪，100％純鮮奶、鮮奶饅頭、鮮奶優格等，回家可以好好滿足您的味蕾！【如欲安排前往建議事先電話聯繫確認】","TrafficGuidelines":"開車北上：台1線→74甲線→6.3公里處左轉→沿著路標即可到達。南下：快官交流道→74線→74甲線→6.3公里處右轉→沿著路標即可到達。","Add":"彰化縣花壇鄉灣東村灣福路60巷13弄13號","OpenHours":"6:30~20:00","City":"彰化縣","Town":"花壇鄉","Coordinate":"23.3165746,121.45421050000004","Py":24.0363935,"Px":120.5757499,"Picture1":""},{"Name":"古早雞休閒農場","Tel":"049-2522215","Toldescribe":"包粽子、做芋粿、採荔枝、吃古早雞等，這是在古早雞農場可以體驗的兒時童趣。加上主人爽朗的笑容與熱情的招呼，讓人彷彿回到了鄉下的阿媽家。寬敞的園區，設置有室外烤肉區、卡拉ok歡唱區、如果遠道而來，想在此停留，這裡也提供民宿的服務。如果是3、4月時到訪，可以到古早雞休閒農場喝荔枝蜜，此時正當荔枝花開的時候，4、5月時到訪，可以到芬園鄉德興社區油桐花步道賞桐花。6、7月的時候，還可以在這裡體驗採荔枝的樂趣，同時品嘗以荔枝烹調的荔枝大餐。主人最自豪的就是農場提供的美食佳餚，從荔枝大餐、古早雞風味餐，到傳統的、芋粿、粽子等等，來到這裡一定讓你大飽口福。再加上有趣的DIY活動，讓人肚子、心靈都滿載而歸，不虛此行。【如欲安排前往建議事先電話聯繫確認】","TrafficGuidelines":"開車1.國道一號王田交流道-轉中投公路往草屯方向-沿14號省道往芬園方向-沿指標即可到達。2.中彰快速道路經快官-沿14號省道往芬園方向-亦可直接抵芬園鄉彰南路五段可到達。","Add":"彰化縣芬園鄉舊社村彰南路451巷36號","OpenHours":"10:00~20:30","City":"彰化縣","Town":"芬園鄉","Coordinate":"23.3165746,121.45421050000004","Py":23.9865022,"Px":120.64006229999995,"Picture1":""},{"Name":"魔菇部落休閒農場","Tel":"04-8521898","Toldescribe":"無毒新樂園讓小菇不獨處。當蕈優科技農業已經步入正軌同時，創辦人隨即以推廣親子休閒、生態旅遊和樂活美食結合為目標，創立了「魔菇部落」。在充滿歡樂與驚奇的魔菇部落裡，可以徜徉碧草綠原、探索菇蕈原始林、還能由覽專員的帶領下，一窺蕈優科技菇類生產庫房，並體驗親手ＤＩＹ種菇的樂趣。魔菇部落區內空間挑高設計，將菇類意向造型與空間結合，在寬敞舒適火鍋區享受嚴選新鮮即採的食材，盡嚐各種菇類創意美饌，在紀念品區，人人皆能提起畫筆彩繪出專屬的菇菇公仔。在魔菇部落粉絲團，我們為您紀錄您與家人共享的魔菇點滴樂趣，一趟豐富行程讓大小朋友們開心賞菇、吃菇、玩菇，分秒都是很棒的回憶，現在就來體驗一趟難忘旅程吧！【如欲安排前往建議事先電話聯繫確認】","TrafficGuidelines":"由中山高速公路，轉台76快速道路，往草屯方向，在埔心交流道下，立刻迴轉，可沿著員林大排水溝，即可看到「魔菇部落休閒農場」指標。","Add":"彰化縣埔心鄉埤腳村柳橋東路829號","OpenHours":"週三-週五：10:00-18:00、週六-週日：10:00-19:00","City":"彰化縣","Town":"埔心鄉","Coordinate":"23.939899,120.579383","Py":23.9681474,"Px":120.53765079999994,"Picture1":""},{"Name":"稻香休閒農場","Tel":"04-8661118","Toldescribe":"位於埔鹽鄉的稻香休閒農場，園主陳瑤騰先生不以營利而以教育為出發點，傳承父親的理念，開闢了一座相當原色原味的生態天堂。台灣農業發展迅速，大量的農藥使用已嚴重破壞了這塊土地，陳先生有鑑於此，與專家討論後，把原本為種植葡萄的果園，進行蔬果培育與香草植物種植。由於不同種的植物會吸引許多種類的昆蟲和鳥類來棲息，使原來的土地不但有了新生命，且形成了一座熱鬧的昆蟲王國。園區內處處可見蜻蜓和鳳蝶飛舞，還有會在網子上結出類似英文字母的符號的蜘蛛，到了晚上，更可見螢火蟲的曼妙飛舞。因為這些昆蟲和鳥類的光臨，使得園區內的生態種類不斷的增加，逐漸產生了食物鍊系統，維持了整個生態的平衡。園區內還有一條環繞整個園區的小溪，完全是靠雨水收集桶內的雨水來循環，完全不用自來水和地下水。因為陳先生認為雨水是大自然最寶貴的資源，是最天然的，所以溪裡面的魚相當多且健康，且引來了釵h的蛙類棲息，有水中的魚和蛙類的雙面夾擊，使得園區內不會孳生蚊蟲，由於少了人工的破壞，隨便ㄧ棵矮樹就可以見到鳥巢的蹤影，這裡可以說是生物的天堂。不妨利用假日，到此作一趟生態之旅，小小的發現會有大大的收穫喔！此外，農場還可體驗陶盆彩繪、香草盆栽及手工香草餅乾等DIY活動。【如欲安排前往建議事先電話聯繫確認】","TrafficGuidelines":"開車國道一號轉台76線東西向快速道路→於台76線12k處下交流道→接台19線彰水路後左轉直行約1500公尺→於光明加油站斜對面產業道路右轉直行即可到達。大眾運輸乘台鐵至彰化站下車→至員林客運搭車至「埔鹽站」→請客運司機在光明加油站前停車→下車後右轉進產業道路步行約5分鐘即可到達。","Add":"彰化縣埔鹽鄉彰水路2段169巷23號","OpenHours":"08:00~18:00 (非假日參觀需電話預約、若欲前往賞螢需事先告知) 若有預約晚餐到21:00","City":"彰化縣","Town":"埔鹽鄉","Coordinate":"24.007907,120.53872899999999","Py":24.0030275,"Px":120.4763408,"Picture1":""},{"Name":"日月山景休閒農場","Tel":"04-7370949","Toldescribe":"農場位於八卦山最高處的銀行山上，如果要描述日月山景生態教育休閒農場，「日月山景賞彩霞，月夜天星伴燈海」是最恰當的寫照。民國58年左右，政府推廣銀行山酪農專業區，當時許多居民紛紛加入養乳牛的行列，全盛時期有50多家的乳牛場，隨著時間的更迭，目前銀行山只剩5家經營乳牛場。為了將自家乳製品找尋通路，於是日月山景休閒農場主人便將乳牛牧場轉型生態教育休閒農場。農場裡結合了教育、休閒、娛樂與賞景，在這裡可以親自體驗餵乳牛喝ㄋㄟㄋㄟ或吃草，觀賞乳牛的生態，園區裡也設有烤肉與露營區，或是享受由農場自製的新鮮牛奶火鍋、鮮奶冰淇淋、鮮奶雪糕。每天早上總有許多早起運動的朋友，運動後都會順路到農場吃早點，鮮奶包子與鮮奶饅頭再加上一杯濃純的鮮奶，吃過以後，齒頰留香，給人一天充沛的活力。農場男主人擁有豐富的養牛經驗，在農場裡專門負責乳牛生態解說及農場的介紹，讓來到農場的遊客們獲得充實的知識。而農場的女主人則有著一身的好廚藝，通過丙級技術士的證照，農場的美食都是出自她的巧手，除了鮮奶製品外，還提供簡餐、咖啡及花茶喔！另外為了方便素食主義者，還提供素食的風味餐。想要來趟美食與體驗之旅嗎？歡迎您的蒞臨。【如欲安排前往建議事先電話聯繫確認】","TrafficGuidelines":"開車1.由國道三號接台74線中彰快速道路往員林方向，於東外環即有農場指標，水月台路右轉即到農場。2.中山路往北方向接彰南路，接台74線中彰快速道路往員林方向，於東外環即有農場指標，水月台路右轉即到農場。","Add":"彰化縣彰化市石牌里水月台路218號","OpenHours":"平日09:00~21:00、假日07:00~21:00","City":"彰化縣","Town":"彰化市","Coordinate":"23.3165746,121.45421050000004","Py":24.0561173,"Px":120.58703109999999,"Picture1":""},{"Name":"塭仔漁港","Tel":"","Toldescribe":"塭仔港位於彰化縣線西鄉的西南邊，線西鄉居民早期大多利用潟湖開闢漁塭養殖漁業，後因彰濱工業區開發，塭仔村西南角闢建為人工迷你漁港，因此稱為「塭仔港」，其水域及陸地範圍雖小，但是樸直的漁民努力出海捕魚，現撈的新鮮海產可是貨色齊全呢！在漁港附近，你可以看到辛勤的漁民利用時間補著漁網，等待下一次的豐收，進到漁港內，看著人來人往的魚市，這捕獲的魚類有很多種，除一般性魚類外，季節性的漁獲也不少。其他像是鯊魚等，也常常捕抓到，而且光是鯊魚種類就多達一百多種呢！漁港的西側臨海，水色連天，每到夕陽西下，坐在防波堤上看夕陽，波光瀲灩的美景真是令人讚嘆。這裡的沙灘除了魚多，也無瘋狗浪，因為防波堤有洞，所以魚量特別多，因此臨漁港的慶安水道，是個天然的釣場，到了假日就有許多釣客到此一顯身手，如果您也是箇中好手的話，一定不能錯過到這個天然的大海釣場，感受一下滿載而歸的樂趣喔！你喜歡吃新鮮海鮮嗎？來趟線西別忘了到塭仔漁港逛迷你魚市。倘若你喜愛海洋美景的朋友，可配合假日休閒走訪線西塭仔港，除了買漁貨、吃海鮮你還可以聽海濤，從事各種知性的活動，將讓你感受到本土休閒的魅力，並體驗線西漁港的另一種風貌。【如欲安排前往建議事先電話聯繫確認】","TrafficGuidelines":"開車到線西後，找到中華路向西直走，到西濱快速道路（台61線）左轉，要走高架橋下，就到塭仔港了。","Add":"彰化縣線西鄉塭子村近彰濱工業區線西工業區沿海","OpenHours":"全年無休","City":"彰化縣","Town":"線西鄉","Coordinate":"23.3165746,121.45421050000004","Py":24.1331612,"Px":120.4530456,"Picture1":""}]