[{"Name":"獨角仙休閒農場","Tel":"05-2030666","Toldescribe":"獨角仙休閒農場以新鮮牛奶入菜的酥炸鮮奶饅頭、鮮奶火鍋是這兒的特色佳餚，民眾來此可千萬別錯過，尤其酥炸鮮奶饅頭更滿足許多挑食小朋友的胃。青木瓜燉雞湯、炒台灣嫩山蘇、白斬土雞是老饕來此必點的佳餚，放山土雞的體型雖然較小，但肉質鮮嫩彈Q，沾上一點醬油膏入口，美味無窮。品嚐滿桌佳餚時，可別忘了拿瓶中埔鄉農會推出的石蓮花果汁，添加鳳梨、奇異果原汁的石蓮花原汁不僅調和了石蓮花汁的寒性，更適合解膩；飯後一杯鮮奶霜淇淋，更讓嘴巴劃下甜美句點。【如欲安排前往建議事先電話聯繫確認】","TrafficGuidelines":"開車從國道三號中埔交流道下來，往阿里山的方向行，過了頂六，往中埔市區方向行駛（135縣道），沿指標即可達。","Add":"嘉義縣中埔鄉石弄村45號","OpenHours":"週一~週五 8:30-17:00 週六、週日 8:30-18:00","City":"嘉義縣","Town":"中埔鄉","Coordinate":"23.487854,120.70320700000002","Py":23.4182146,"Px":120.54408420000004},{"Name":"一粒一絲瓜休閒農場","Tel":"0933-277530","Toldescribe":"這裡原主業為有機絲瓜園，後來因應有機休閒農業推動，消費者也可實地到農場走動監督，於是轉型成農場，這裡還是以種植有機絲瓜為主，肥料使用米糠、大豆粉、黑糖與養樂多來發酵，且通過慈心認證，除銷售給慈心里仁商店外，也製成絲瓜露等產品，銷售量呱呱叫。因為經營有成，沈重庚於94年得到全國模範農民的殊榮，他也兼當地的導覽員，對於各種農作物知識都很熟稔，例如在有機農作因為不能噴灑農藥，所以有害蟲，所以他在地瓜葉旁種植菸葉來抵制。沈重庚也常到處學習充實知識，如到嘉義大學上中草藥學的學分班以更近一步了解決明子的用法，讓消費者可以食用的更安心。他也是擅長鄉土諺語與故事的高手，隨手抓來肉豆葉，就可以說起3個女兒不如1棵肉豆的故事。到了端午節，現場種植的艾草、石菖蒲、榕樹又成為驅邪傳說的好題材，遊客都聽得津津有味。來到這裡除了採絲瓜外，當地老師傅利用竹子興建，外塗土粗糠，讓遊客可以參觀冬暖夏涼的「古亭畚」民宿。這裡也可DIY各種造型的菜瓜布，品嚐親手採摘的地瓜葉，配鄉土味的絲瓜粥，讓您來一趟之後吃、玩、住、買全部都滿足。【如欲安排前往建議事先電話聯繫確認】","TrafficGuidelines":"開車嘉義交流道下-嘉義市吳鳳南路底右轉-往白河方向前行-約400公尺左轉-和睦村公館。","Add":"嘉義縣中埔鄉和睦村公館35-7號","OpenHours":"09:00~18:00","City":"嘉義縣","Town":"中埔鄉","Coordinate":"23.487854,120.70320700000002","Py":23.4459187,"Px":120.46147240000005},{"Name":"龍雲休閒農場","Tel":"05-2562216","Toldescribe":"龍雲休閒農場位在阿里山公路旁，靠近奮起湖的山坡地，從石桌往奮起湖的169道路上有叉路通往。龍雲休閒農場是以主人鄧金聰的三合院老厝為中心，經過十幾年的經營，逐漸有今天的規模。其所在的區域有大片的竹林、杉木林、櫻花林和天然林等自然資源，當地人特別保留下來不開發，聯合成立了台灣第一座由民間自行成立的「自然生態保育區」。由於環境自然多樣，因此在此生活的野生動物也非常多樣，其中不乏一些保育類動物。農場一年四季都是賞蛙的好季節，而夏天的黑翅螢、冬天的雪螢，讓前來的遊客都能欣賞到火金姑美麗身影。【如欲安排前往建議事先電話聯繫確認】","TrafficGuidelines":"開車1.南下：國道三號嘉義中埔交流道下(切記：請勿從竹崎交流道下)，一下去即是阿里山公路台18線。台18 線嘉義往阿里山中途50 km處，左轉接169 縣道往奮起湖方向，再依標示即可到達。2.北上：走國道三號自中埔交流道下，即是台18線。其餘路況同南下；或中山高自水上系統交流道下，續接82快西向往東之快速道路，續接國道三號，自中埔交流道下。大眾運輸嘉義縣公車可以到石桌，或搭阿里山小火車至奮起湖下車，但是往休閒農場沒有大眾交通工具，請事先預約請農場主人來接。","Add":"嘉義縣竹崎鄉中和村石棹1號","OpenHours":"","City":"嘉義縣","Town":"中埔鄉","Coordinate":"23.487854,120.70320700000002","Py":23.487854,"Px":120.70320700000002},{"Name":"松田崗休閒農場","Tel":"05-2722342","Toldescribe":"松田崗休閒農莊是由劍湖山世界休閒產業集團於民雄鄉所營造的南洋風情農莊，這裏的木雕、石雕都是由峇里島引進，本農場過去是愛之味畜牧場，配合政府推動的政策轉型呈現農場生產、生活、生態的模式經營，結合棕櫚樹、熱帶植物所呈現的休閒景觀，在這占地十二公頃的農莊內處處給您濃濃的異國熱帶渡假氣息！在這綠意盎然的農場中到處可見的棕櫚樹，這裡蒐集了來自世界各國的棕櫚樹品種及香藥草植物、水生植物區、蜜源植物區等，適合小學生的戶外校學活動體驗遊程，香草工坊DIY教室提供大家製作手工精油香皂、彩繪筆筒、風鈴、果凍蠟燭等項目，讓你體驗動手創作的樂趣。南十字星賣店提供遊客漆彈固定靶射擊及射箭體驗，農場內還規劃有沙雕遊戲、竹林迷宮區、夏季開放的峇龍戲水區活動讓遊客體驗等。每天在席菈曼表演場提供家族特技秀、泰國人妖秀演出，早上及下午皆有演出讓遊客來到悠閒寧靜內可以觀賞精采絶倫的特技表演並享受熱情的歌舞演出。農莊隨處可見峇里島風味的發呆亭，還有各種姿勢表情可愛的石雕及兩頭鱷魚造型木雕椅，都是來自於印尼和峇里島當地，而峇里島特有的迎賓門也被放大尺寸後移到這裡，置身其中就像到峇里島一樣悠哉。如果您想要享受購物的樂趣，在黃金樹生活館內，就有來自印尼與峇里島的眾多藝術品與生活品，以及在地的農特產品供遊客選購。農莊內目前有雨林餐廳提供遊客季節合餐、團體合菜服務，亦舉辦婚宴的最佳場地。另外一間蒙古烤肉餐廳提供蒙古烤肉＋酸菜白肉火鍋自助式吃到飽服務，二間餐廳皆可提供500人團體用餐，歡迎大家來品嚐本農場二間餐廳所提供的特色餐飲。園區二日遊的活動部份規劃有多處露營區適合體驗家庭的RV車露營區以及容納團體露營的大小露營區，並規劃有木板帳位及草皮帳位任遊客選擇！【如欲安排前往建議事先電話聯繫確認】","TrafficGuidelines":"開車1.國道三號，竹崎交流道下，250K經中正大學循指標前往15分鐘可抵達。2.國道一號，大林交流道下，接大林省道一號往民雄中正大學約25分鐘可抵達。大眾運輸火車︰嘉義火車站下車，撘公車經中正大學於三興村三興國小下車循指標走15分鐘可到達。","Add":"嘉義縣民雄鄉松山村松子腳48-15號","OpenHours":"09:00~20:00 全年無休","City":"嘉義縣","Town":"民雄鄉","Coordinate":"23.3995944,120.55093579999993","Py":23.546536,"Px":120.47434900000007},{"Name":"竹耕生態教育休閒農場","Tel":"05-2790565","Toldescribe":"位於竹崎交流道旁的竹耕生態教育休閒農場，占地約13公頃，是一座以20年樹齡波羅蜜為主要作物的園區，因為波羅蜜很少蟲害，栽種過程不必施用農藥，歷經老園主長期以無農藥經營管理，加上第二代園主夫妻對自然環境悉心呵護及愛心復育，園區衍生數十種昆蟲如螢火蟲、獨角仙、鍬型蟲、蝴蝶，也吸引30多種野生鳥類如綠繡眼、白頭翁、五色鳥、老鷹等前來棲息，此外還飼養一群馴化的野生鳥類，可與遊客親近互動。這座農場是申請通過由行政院農委會專案輔導的教育農園，透過園主精心規劃的活動課程，培養遊客愛自然、愛護自然、進而將自己融入自然的最高境界。這裡有古早味十足的三合院、農具展示區、露營區、烤肉區、野菜區、果樹區、藥草區、可愛動物區、賞鳥區等，配合園主生態導覽及植物識別解說，讓你對波羅蜜、有毒植物、藥用植物、野生可食植物、野鳥習性、草原生態等有基本的認知。壓花製作和石頭彩繪更可發揮個人獨特的藝術創作天分！除了觀賞昆蟲、鳥、蝴蝶外，還可以捉蝌蚪、親子戲水同樂；最後別錯過親自品嘗園區自產自製、別具特色的波羅蜜酒、波羅蜜醋、波羅蜜冰沙等，才知波羅蜜的魅力！（農業易遊網提醒你：未滿十八歲　請勿飲酒）【如欲安排前往建議事先電話聯繫確認】","TrafficGuidelines":"開車1.北上：國道三號竹崎交流道下，第1個紅綠燈左轉直走。2.南下：國道三號民雄交流道下，直走1公里，在嘉義田尾指標右轉。大眾運輸搭乘火車或國光客運，嘉義站下車轉搭嘉義縣公車於崎腳站下車，往變電所方向步行約10分鐘即可到達。","Add":"嘉義縣竹崎鄉灣橋村田尾20號","OpenHours":"09:30~17:00（週一休園）","City":"嘉義縣","Town":"竹崎鄉","Coordinate":"23.6978537,120.54837709999993","Py":23.5001436,"Px":120.48602589999996},{"Name":"阿里山森林遊樂區","Tel":"白天05-267-9917；夜間 05-267-9715；05-2679715","Toldescribe":"阿里山五奇：日出、雲海、晚霞、巨木、森林鐵路面積1397.83公頃是由18座大山組成，屬玉山山脈支脈，距嘉義市東方約75公里，可由台18線(嘉義-阿里山)或台21線(水里-阿里山)公路可到達，沿途氣溫呈垂直分佈，具備熱、暖、溫三帶氣候，山上風光明媚，氣候宜人是國際級的旅遊勝地阿里山的日出、雲海、晚霞、森林鐵路、巨木合稱阿里山五奇；阿里山新八景：塔山奇岩、28號巨木、小笠原山、水山巨木、香林拱橋、慈雲觀景、神怡流瀑、阿里山神木遺跡等，皆已聞名遐邇，每年三、四月的阿里山花季更是遊人如織。園區內有香林神木、象鼻木、三代木、千歲檜、永結同心、金豬報喜、三兄弟、四姊妹等雄偉特異的紅檜巨木景觀；姊妹潭、沼平公園(櫻之道、詩詞步道)、阿里山貴賓館(蔣公行館)、高山博物館、高山植物園、小笠原觀景平台、樹靈塔、集材柱等遊憩景點，供遊客駐足觀賞；受鎮宮、慈雲寺、土地公廟等為當地重要信仰中心；另有巨木群棧道、塔山森林步道、對高岳健康步道、祝山觀日步道、水山步道等，為登山健行、享受森林浴的最佳場所。如果票選國內最富知名度的森林遊樂區，阿里山森林遊樂區必定拔得頭籌。神木、高山小火車、祝山日出、冬季雲海、春日櫻花，阿里山森林遊樂區早已是國人旅遊的熱門景點。如以沼平為中心，本區為一面朝西北的斜坡，屬於阿里山山脈。阿里山山脈為1,000萬年前中新世紀層的年輕地質，屬南港厚砂岩層，區內有南北向及東西向的斷層，故常形成險峻的斷崖，其中尤以對高岳及塔山的斷崖地勢最為秀麗。塔山岩層節裡層次分明，紋理質感優美，伴隨雲霧或夕陽，為阿里山一大勝景。祝山觀日樓不僅能遙望對高岳的險峻，更是阿里山觀賞雲海、日出的最佳地點。阿里山日出之美，實由玉山之高聳與林谷之深邃所襯托，當旭日從中央山脈山頭躍升而起，萬丈光芒掃片天際，雲蒸霞藯，極盡壯麗之美。坐著阿里山小火車一路爬昇，隨著海拔高度的轉換，窗外的植物景觀也一路變化，從低海拔平原、樹型像個大傘、葉子較寬大，到阿里山森林遊樂區海拔2,216公尺，大多樹木形狀呈錐狀，葉子變成針型，是的，我們已來到全世界品質最好，材積量最大的檜木林區。阿里山「花之宴饗」，首先粉墨登場首推吉野櫻，吉野櫻隨著日本人開發阿里山林場的腳步，來此落腳，原本只是一解日人思鄉之情而大量種植，如今國人為了一睹風采，沒想到成了吸引國人來到阿里山旅遊最佳的賣點。【如欲安排前往建議事先電話聯繫確認】","TrafficGuidelines":"開車1、南二高速公路中埔交流道下後接18號省道（阿里山公路）至阿里山。2、中山高速公路嘉義交流道下後接18號省道（阿里山公路）至阿里山。大眾運輸工具1.嘉義縣公車﹝嘉義-阿里山﹞、﹝嘉義高鐵-阿里山﹞、﹝奮起湖-阿里山﹞， 車班及行駛狀況請洽嘉義縣公車嘉義站：(05)224-3140 2.員林客運﹝日月潭-阿里山﹞，車班及行駛狀況請洽員林客運水里站： 049-2770041。 3.國光客運﹝台北西站-阿里山﹞，車班及行駛狀況請洽國光客運台北西站：02-23119893","Add":"嘉義縣阿里山鄉","OpenHours":"0-24時","City":"嘉義縣","Town":"阿里山鄉","Coordinate":"24.8786204,121.4624","Py":23.4354677,"Px":120.78096759999994},{"Name":"瑞峰太和休閒農業區","Tel":"05-2561826、0932-832046許元舜","Toldescribe":"瑞峰太和休閒農業區位置處於大阿里山地區的西北方，雖然屬於梅山鄉但也是阿里山山脈的一部分。這邊的主要農作物以高山茶為主，所以來到這邊可以聞到從製茶場中飄出的陣陣茶香；除了高山茶之外，早期的梅子或者是紅肉李也是這邊的特產之一。自然景觀部分，最不能錯過的是古道及眾多的瀑布群。　在瑞峰可以選擇挑炭古道體驗前人走過的路，也可以沿著古道欣賞瀑布之美，沿途有生毛樹瀑布、龍宮瀑布以及雷音瀑布群等等，還可以欣賞到眾多美麗的山景和風光；在太和則是可以選擇梅嶺古道欣賞梅花的冷傲獨立，花石溪步道因長年泉水從石壁表面滲出，而呈現奇特花紋而得名，此外這裡也是魚蝦保育區，能觀賞到豐富的生態資源。　瑞峰太和休閒農業區緊鄰瑞里與奮起湖風景區，一般遊客到此也可先至瑞太遊客中心詢問周遭景點，再依個人喜好安排路線。到此地旅遊適合2天1夜的行程，且每一個時令都有不同的風情，農曆過年期間適合賞梅，而端午節前後適合採李，國曆4到6月適合觀螢，清新的空氣與開闊的景觀則適合一年四季的拜訪，是讓人想一來再來的好地方。【如欲安排前往建議事先電話聯繫確認】","TrafficGuidelines":"開車國道三號下梅山交流道沿著162甲線到即可到達。大眾運輸公車：嘉義市公車往瑞里瑞峰。火車：阿里山小火車，可事先連絡民宿業者到交力坪接送。","Add":"嘉義縣梅山鄉太和村樟樹湖27號","OpenHours":"","City":"嘉義縣","Town":"梅山鄉","Coordinate":"25.1023874,121.60712020000005","Py":23.525879,"Px":120.71162400000003},{"Name":"觸口自然教育中心","Tel":"05-2590211","Toldescribe":"觸口台地 (亦稱為番路台地)，其地面甚為平坦，高度最高約在 300~331公尺之間。乃受到八掌溪河流侵蝕與觸口斷層交互作用而成。當八掌溪流經中游的丘陵區，因地形坡度減緩、流速下降，導致形成河道蜿蜒曲折的曲流；又因受到觸口斷層構造運動使地勢抬高或發生河流襲奪現象，使得水量增加而有回春現象，將曲流再進行下切侵蝕，呈現出掘鑿曲流地形。伴隨著掘鑿曲流的發生，本區在不同時期的作用下，產生如同階梯般的河階台地。八掌溪流域發源於阿里山山脈西側，上游河谷階地零星分布，流經中游之後以觸口為頂點，形成斗六與嘉義丘陵地區諸溪流最大面積的沖積扇。扇頂位於觸口斷層帶上方，斷層近期的衝上活動是沖積扇發育的重要原因。此新興沖積扇的定年結果約為38750±750年，顯示觸口斷層在三萬八千多年前曾有過活動。本區動植物自然生態景觀豐富，集樹木銀行，觸口工作站，自然教育中心為一體，具豐富的人文、地質及林業資源。","TrafficGuidelines":"公車族嘉義縣公車：搭乘嘉義至阿里山、達邦、奮起湖線，在五虎寮站下車步行約3分鐘即可到達；班次資訊查詢：(05)2763788。嘉義客運：嘉義至觸口線，在五虎寮站下車；步行約3分鐘即可到達；班次資訊查詢：(05)2223194。開車族國道1號接東西向82號快速道路，轉接國道3號於中埔交流道下，往阿里山方向沿省道台18號公路約20分鐘即抵達。","Add":"602嘉義縣番路鄉新福村1鄰五虎寮18號","OpenHours":"9:00～16:30（離園時間下午5:00前）","City":"嘉義縣","Town":"番路鄉","Coordinate":"","Py":23.4528259,"Px":120.5534745}]